__time,/mti630/imu/angular_velocity/x,/mti630/imu/angular_velocity/y,/mti630/imu/angular_velocity/z,/mti630/imu/angular_velocity_covariance[0;0],/mti630/imu/angular_velocity_covariance[0;1],/mti630/imu/angular_velocity_covariance[0;2],/mti630/imu/angular_velocity_covariance[1;1],/mti630/imu/angular_velocity_covariance[1;2],/mti630/imu/angular_velocity_covariance[2;2],/mti630/imu/header/stamp,/mti630/imu/linear_acceleration/x,/mti630/imu/linear_acceleration/y,/mti630/imu/linear_acceleration/z,/mti630/imu/linear_acceleration_covariance[0;0],/mti630/imu/linear_acceleration_covariance[0;1],/mti630/imu/linear_acceleration_covariance[0;2],/mti630/imu/linear_acceleration_covariance[1;1],/mti630/imu/linear_acceleration_covariance[1;2],/mti630/imu/linear_acceleration_covariance[2;2],/mti630/imu/orientation/pitch_deg,/mti630/imu/orientation/roll_deg,/mti630/imu/orientation/w,/mti630/imu/orientation/x,/mti630/imu/orientation/y,/mti630/imu/orientation/yaw_deg,/mti630/imu/orientation/z,/mti630/imu/orientation_covariance[0;0],/mti630/imu/orientation_covariance[0;1],/mti630/imu/orientation_covariance[0;2],/mti630/imu/orientation_covariance[1;1],/mti630/imu/orientation_covariance[1;2],/mti630/imu/orientation_covariance[2;2],/triangulation_3D_pose/header/stamp,/triangulation_3D_pose/pose/covariance[0;0],/triangulation_3D_pose/pose/covariance[0;1],/triangulation_3D_pose/pose/covariance[0;2],/triangulation_3D_pose/pose/covariance[0;3],/triangulation_3D_pose/pose/covariance[0;4],/triangulation_3D_pose/pose/covariance[0;5],/triangulation_3D_pose/pose/covariance[1;1],/triangulation_3D_pose/pose/covariance[1;2],/triangulation_3D_pose/pose/covariance[1;3],/triangulation_3D_pose/pose/covariance[1;4],/triangulation_3D_pose/pose/covariance[1;5],/triangulation_3D_pose/pose/covariance[2;2],/triangulation_3D_pose/pose/covariance[2;3],/triangulation_3D_pose/pose/covariance[2;4],/triangulation_3D_pose/pose/covariance[2;5],/triangulation_3D_pose/pose/covariance[3;3],/triangulation_3D_pose/pose/covariance[3;4],/triangulation_3D_pose/pose/covariance[3;5],/triangulation_3D_pose/pose/covariance[4;4],/triangulation_3D_pose/pose/covariance[4;5],/triangulation_3D_pose/pose/covariance[5;5],/triangulation_3D_pose/pose/pose/orientation/pitch_deg,/triangulation_3D_pose/pose/pose/orientation/roll_deg,/triangulation_3D_pose/pose/pose/orientation/w,/triangulation_3D_pose/pose/pose/orientation/x,/triangulation_3D_pose/pose/pose/orientation/y,/triangulation_3D_pose/pose/pose/orientation/yaw_deg,/triangulation_3D_pose/pose/pose/orientation/z,/triangulation_3D_pose/pose/pose/position/x,/triangulation_3D_pose/pose/pose/position/y,/triangulation_3D_pose/pose/pose/position/z,/triangulation_3D_pose/twist/covariance[0;0],/triangulation_3D_pose/twist/covariance[0;1],/triangulation_3D_pose/twist/covariance[0;2],/triangulation_3D_pose/twist/covariance[0;3],/triangulation_3D_pose/twist/covariance[0;4],/triangulation_3D_pose/twist/covariance[0;5],/triangulation_3D_pose/twist/covariance[1;1],/triangulation_3D_pose/twist/covariance[1;2],/triangulation_3D_pose/twist/covariance[1;3],/triangulation_3D_pose/twist/covariance[1;4],/triangulation_3D_pose/twist/covariance[1;5],/triangulation_3D_pose/twist/covariance[2;2],/triangulation_3D_pose/twist/covariance[2;3],/triangulation_3D_pose/twist/covariance[2;4],/triangulation_3D_pose/twist/covariance[2;5],/triangulation_3D_pose/twist/covariance[3;3],/triangulation_3D_pose/twist/covariance[3;4],/triangulation_3D_pose/twist/covariance[3;5],/triangulation_3D_pose/twist/covariance[4;4],/triangulation_3D_pose/twist/covariance[4;5],/triangulation_3D_pose/twist/covariance[5;5],/triangulation_3D_pose/twist/twist/angular/x,/triangulation_3D_pose/twist/twist/angular/y,/triangulation_3D_pose/twist/twist/angular/z,/triangulation_3D_pose/twist/twist/linear/x,/triangulation_3D_pose/twist/twist/linear/y,/triangulation_3D_pose/twist/twist/linear/z
1690312190.573805,-0.000410,0.003061,0.001007,0.000001,0.000000,0.000000,0.000001,0.000000,0.000001,1678344328.060068,9.773779,-0.171161,-0.049373,0.000001,0.000000,0.000000,0.000001,0.000000,0.000001,-87.427601,-138.101594,-0.678546,-0.135264,0.705980,161.483956,-0.151235,0.000001,0.000000,0.000000,0.000001,0.000000,0.000001,,,,,,,,,,,,,,,,,,,,,,,,,,,,,,,,,,,,,,,,,,,,,,,,,,,,,,,,,,,
1690312190.582545,0.004073,0.003067,-0.001791,0.000001,0.000000,0.000000,0.000001,0.000000,0.000001,1678344328.067568,9.802916,-0.172119,-0.041909,0.000001,0.000000,0.000000,0.000001,0.000000,0.000001,-87.428789,-138.074097,-0.678536,-0.135357,0.705951,161.471956,-0.151330,0.000001,0.000000,0.000000,0.000001,0.000000,0.000001,,,,,,,,,,,,,,,,,,,,,,,,,,,,,,,,,,,,,,,,,,,,,,,,,,,,,,,,,,,
1690312190.587485,,,,,,,,,,,,,,,,,,,,,,,,,,,,,,,,,1678315273.547024,0.000200,0.000000,0.000000,0.000000,0.000000,0.000000,0.000200,0.000000,0.000000,0.000000,0.000000,0.000200,0.000000,0.000000,0.000000,0.000000,0.000000,0.000000,0.000000,0.000000,0.000000,0.000000,0.000000,1.000000,0.000000,0.000000,0.000000,0.000000,0.000000,0.000000,0.000000,0.000000,0.000000,0.000000,0.000000,0.000000,0.000000,0.000000,0.000000,0.000000,0.000000,0.000000,0.000000,0.000000,0.000000,0.000000,0.000000,0.000000,0.000000,0.000000,0.000000,0.000000,0.000000,0.000000,0.000000,0.000000,0.000000,0.000000
1690312190.591393,0.002723,0.000101,-0.001054,0.000001,0.000000,0.000000,0.000001,0.000000,0.000001,1678344328.077568,9.748316,-0.193547,-0.111934,0.000001,0.000000,0.000000,0.000001,0.000000,0.000001,-87.428603,-138.051908,-0.678510,-0.135478,0.705925,161.470466,-0.151458,0.000001,0.000000,0.000000,0.000001,0.000000,0.000001,,,,,,,,,,,,,,,,,,,,,,,,,,,,,,,,,,,,,,,,,,,,,,,,,,,,,,,,,,,
1690312190.599981,-0.000869,0.000506,0.001591,0.000001,0.000000,0.000000,0.000001,0.000000,0.000001,1678344328.085068,9.790397,-0.084963,-0.120747,0.000001,0.000000,0.000000,0.000001,0.000000,0.000001,-87.427885,-138.034883,-0.678490,-0.135559,0.705909,161.467655,-0.151549,0.000001,0.000000,0.000000,0.000001,0.000000,0.000001,,,,,,,,,,,,,,,,,,,,,,,,,,,,,,,,,,,,,,,,,,,,,,,,,,,,,,,,,,,
1690312190.608907,0.005015,0.000929,-0.002995,0.000001,0.000000,0.000000,0.000001,0.000000,0.000001,1678344328.092568,9.743192,-0.124144,-0.058794,0.000001,0.000000,0.000000,0.000001,0.000000,0.000001,-87.428524,-138.019250,-0.678475,-0.135654,0.705885,161.467659,-0.151643,0.000001,0.000000,0.000000,0.000001,0.000000,0.000001,,,,,,,,,,,,,,,,,,,,,,,,,,,,,,,,,,,,,,,,,,,,,,,,,,,,,,,,,,,
1690312190.617649,0.001856,-0.001457,0.000698,0.000001,0.000000,0.000000,0.000001,0.000000,0.000001,1678344328.102568,9.834290,-0.115698,-0.084984,0.000001,0.000000,0.000000,0.000001,0.000000,0.000001,-87.427616,-137.987430,-0.678447,-0.135771,0.705861,161.456577,-0.151776,0.000001,0.000000,0.000000,0.000001,0.000000,0.000001,,,,,,,,,,,,,,,,,,,,,,,,,,,,,,,,,,,,,,,,,,,,,,,,,,,,,,,,,,,
1690312190.626393,0.004786,-0.001265,-0.000101,0.000001,0.000000,0.000000,0.000001,0.000000,0.000001,1678344328.110068,9.731913,-0.142312,-0.206356,0.000001,0.000000,0.000000,0.000001,0.000000,0.000001,-87.428095,-137.970303,-0.678431,-0.135869,0.705837,161.455680,-0.151875,0.000001,0.000000,0.000000,0.000001,0.000000,0.000001,,,,,,,,,,,,,,,,,,,,,,,,,,,,,,,,,,,,,,,,,,,,,,,,,,,,,,,,,,,
1690312190.635427,0.004166,-0.001593,0.002419,0.000001,0.000000,0.000000,0.000001,0.000000,0.000001,1678344328.117568,9.831450,-0.184835,-0.145520,0.000001,0.000000,0.000000,0.000001,0.000000,0.000001,-87.427569,-137.944368,-0.678411,-0.135954,0.705818,161.444907,-0.151973,0.000001,0.000000,0.000000,0.000001,0.000000,0.000001,,,,,,,,,,,,,,,,,,,,,,,,,,,,,,,,,,,,,,,,,,,,,,,,,,,,,,,,,,,
1690312190.643462,0.001860,0.002248,-0.001773,0.000001,0.000000,0.000000,0.000001,0.000000,0.000001,1678344328.127568,9.807493,-0.222520,0.067767,0.000001,0.000000,0.000000,0.000001,0.000000,0.000001,-87.427925,-137.917606,-0.678390,-0.136076,0.705788,161.438709,-0.152100,0.000001,0.000000,0.000000,0.000001,0.000000,0.000001,,,,,,,,,,,,,,,,,,,,,,,,,,,,,,,,,,,,,,,,,,,,,,,,,,,,,,,,,,,
1690312190.652548,-0.001302,0.000236,0.001261,0.000001,0.000000,0.000000,0.000001,0.000000,0.000001,1678344328.135068,9.737897,-0.045020,-0.163192,0.000001,0.000000,0.000000,0.000001,0.000000,0.000001,-87.426793,-137.889042,-0.678366,-0.136164,0.705771,161.426192,-0.152205,0.000001,0.000000,0.000000,0.000001,0.000000,0.000001,,,,,,,,,,,,,,,,,,,,,,,,,,,,,,,,,,,,,,,,,,,,,,,,,,,,,,,,,,,
1690312190.661386,0.002927,0.000597,-0.003304,0.000001,0.000000,0.000000,0.000001,0.000000,0.000001,1678344328.142568,9.755280,-0.123277,0.004474,0.000001,0.000000,0.000000,0.000001,0.000000,0.000001,-87.427572,-137.871749,-0.678352,-0.136261,0.705745,161.424894,-0.152302,0.000001,0.000000,0.000000,0.000001,0.000000,0.000001,,,,,,,,,,,,,,,,,,,,,,,,,,,,,,,,,,,,,,,,,,,,,,,,,,,,,,,,,,,
1690312190.669850,0.002442,0.001102,0.001041,0.000001,0.000000,0.000000,0.000001,0.000000,0.000001,1678344328.160068,9.761143,-0.177433,-0.105496,0.000001,0.000000,0.000000,0.000001,0.000000,0.000001,-87.427047,-137.817839,-0.678306,-0.136481,0.705695,161.409101,-0.152542,0.000001,0.000000,0.000000,0.000001,0.000000,0.000001,,,,,,,,,,,,,,,,,,,,,,,,,,,,,,,,,,,,,,,,,,,,,,,,,,,,,,,,,,,
1690312190.678460,-0.000535,0.001172,0.001105,0.000001,0.000000,0.000000,0.000001,0.000000,0.000001,1678344328.167568,9.832263,-0.214556,-0.180526,0.000001,0.000000,0.000000,0.000001,0.000000,0.000001,-87.427508,-137.779769,-0.678293,-0.136566,0.705669,161.386058,-0.152638,0.000001,0.000000,0.000000,0.000001,0.000000,0.000001,,,,,,,,,,,,,,,,,,,,,,,,,,,,,,,,,,,,,,,,,,,,,,,,,,,,,,,,,,,
1690312190.687001,-0.001921,0.002039,0.000592,0.000001,0.000000,0.000000,0.000001,0.000000,0.000001,1678344328.175068,9.771872,-0.122204,0.016023,0.000001,0.000000,0.000000,0.000001,0.000000,0.000001,-87.426691,-137.768913,-0.678270,-0.136656,0.705654,161.390637,-0.152735,0.000001,0.000000,0.000000,0.000001,0.000000,0.000001,,,,,,,,,,,,,,,,,,,,,,,,,,,,,,,,,,,,,,,,,,,,,,,,,,,,,,,,,,,
1690312190.687132,,,,,,,,,,,,,,,,,,,,,,,,,,,,,,,,,1678315273.646739,0.000200,0.000000,0.000000,0.000000,0.000000,0.000000,0.000200,0.000000,0.000000,0.000000,0.000000,0.000200,0.000000,0.000000,0.000000,0.000000,0.000000,0.000000,0.000000,0.000000,0.000000,0.000000,0.000000,1.000000,0.000000,0.000000,0.000000,0.000000,0.000333,0.000040,0.000577,0.000000,0.000000,0.000000,0.000000,0.000000,0.000000,0.000000,0.000000,0.000000,0.000000,0.000000,0.000000,0.000000,0.000000,0.000000,0.000000,0.000000,0.000000,0.000000,0.000000,0.000000,0.000000,0.000000,0.000000,0.000000,0.000000,0.000000
1690312190.695593,0.003875,0.000056,-0.000438,0.000001,0.000000,0.000000,0.000001,0.000000,0.000001,1678344328.185068,9.794760,-0.059167,-0.181888,0.000001,0.000000,0.000000,0.000001,0.000000,0.000001,-87.427172,-137.724320,-0.678249,-0.136785,0.705618,161.368459,-0.152877,0.000001,0.000000,0.000000,0.000001,0.000000,0.000001,,,,,,,,,,,,,,,,,,,,,,,,,,,,,,,,,,,,,,,,,,,,,,,,,,,,,,,,,,,
1690312190.704693,0.003349,-0.001265,0.000893,0.000001,0.000000,0.000000,0.000001,0.000000,0.000001,1678344328.192568,9.770656,-0.161433,-0.170141,0.000001,0.000000,0.000000,0.000001,0.000000,0.000001,-87.426842,-137.685357,-0.678232,-0.136871,0.705596,161.345167,-0.152980,0.000001,0.000000,0.000000,0.000001,0.000000,0.000001,,,,,,,,,,,,,,,,,,,,,,,,,,,,,,,,,,,,,,,,,,,,,,,,,,,,,,,,,,,
1690312190.715497,0.001314,-0.000501,-0.000858,0.000001,0.000000,0.000000,0.000001,0.000000,0.000001,1678344328.200068,9.740710,-0.195054,-0.224316,0.000001,0.000000,0.000000,0.000001,0.000000,0.000001,-87.426887,-137.662415,-0.678215,-0.136960,0.705574,161.337552,-0.153076,0.000001,0.000000,0.000000,0.000001,0.000000,0.000001,,,,,,,,,,,,,,,,,,,,,,,,,,,,,,,,,,,,,,,,,,,,,,,,,,,,,,,,,,,
1690312190.721710,0.002223,0.003696,-0.000805,0.000001,0.000000,0.000000,0.000001,0.000000,0.000001,1678344328.207568,9.805419,-0.185209,-0.199393,0.000001,0.000000,0.000000,0.000001,0.000000,0.000001,-87.427810,-137.629509,-0.678203,-0.137054,0.705545,161.320702,-0.153176,0.000001,0.000000,0.000000,0.000001,0.000000,0.000001,,,,,,,,,,,,,,,,,,,,,,,,,,,,,,,,,,,,,,,,,,,,,,,,,,,,,,,,,,,
1690312190.730371,0.002945,0.001364,0.000899,0.000001,0.000000,0.000000,0.000001,0.000000,0.000001,1678344328.217568,9.781146,-0.150345,0.009953,0.000001,0.000000,0.000000,0.000001,0.000000,0.000001,-87.428546,-137.607922,-0.678182,-0.137182,0.705513,161.320382,-0.153304,0.000001,0.000000,0.000000,0.000001,0.000000,0.000001,,,,,,,,,,,,,,,,,,,,,,,,,,,,,,,,,,,,,,,,,,,,,,,,,,,,,,,,,,,
1690312190.739167,0.004328,0.000786,-0.000799,0.000001,0.000000,0.000000,0.000001,0.000000,0.000001,1678344328.225068,9.809232,-0.095777,0.004002,0.000001,0.000000,0.000000,0.000001,0.000000,0.000001,-87.427768,-137.591149,-0.678158,-0.137276,0.705495,161.319930,-0.153407,0.000001,0.000000,0.000000,0.000001,0.000000,0.000001,,,,,,,,,,,,,,,,,,,,,,,,,,,,,,,,,,,,,,,,,,,,,,,,,,,,,,,,,,,
1690312190.747699,0.001832,-0.004563,-0.000586,0.000001,0.000000,0.000000,0.000001,0.000000,0.000001,1678344328.235068,9.838531,-0.079928,-0.178878,0.000001,0.000000,0.000000,0.000001,0.000000,0.000001,-87.427248,-137.577510,-0.678129,-0.137401,0.705471,161.327321,-0.153537,0.000001,0.000000,0.000000,0.000001,0.000000,0.000001,,,,,,,,,,,,,,,,,,,,,,,,,,,,,,,,,,,,,,,,,,,,,,,,,,,,,,,,,,,
1690312190.756334,0.000957,-0.001204,0.000330,0.000001,0.000000,0.000000,0.000001,0.000000,0.000001,1678344328.242568,9.727859,-0.120076,-0.029545,0.000001,0.000000,0.000000,0.000001,0.000000,0.000001,-87.427953,-137.550679,-0.678116,-0.137491,0.705445,161.315933,-0.153632,0.000001,0.000000,0.000000,0.000001,0.000000,0.000001,,,,,,,,,,,,,,,,,,,,,,,,,,,,,,,,,,,,,,,,,,,,,,,,,,,,,,,,,,,
1690312190.768174,0.004568,-0.001083,0.001264,0.000001,0.000000,0.000000,0.000001,0.000000,0.000001,1678344328.250068,9.835219,-0.164470,-0.137306,0.000001,0.000000,0.000000,0.000001,0.000000,0.000001,-87.428046,-137.529101,-0.678097,-0.137589,0.705421,161.311077,-0.153736,0.000001,0.000000,0.000000,0.000001,0.000000,0.000001,,,,,,,,,,,,,,,,,,,,,,,,,,,,,,,,,,,,,,,,,,,,,,,,,,,,,,,,,,,
1690312190.777338,0.002655,-0.002274,-0.003421,0.000001,0.000000,0.000000,0.000001,0.000000,0.000001,1678344328.257568,9.757590,-0.183930,-0.274045,0.000001,0.000000,0.000000,0.000001,0.000000,0.000001,-87.428864,-137.513903,-0.678082,-0.137687,0.705396,161.311844,-0.153832,0.000001,0.000000,0.000000,0.000001,0.000000,0.000001,,,,,,,,,,,,,,,,,,,,,,,,,,,,,,,,,,,,,,,,,,,,,,,,,,,,,,,,,,,
1690312190.782755,0.005253,0.003531,-0.000028,0.000001,0.000000,0.000000,0.000001,0.000000,0.000001,1678344328.265068,9.797647,-0.180294,-0.175244,0.000001,0.000000,0.000000,0.000001,0.000000,0.000001,-87.428898,-137.496372,-0.678062,-0.137784,0.705373,161.310787,-0.153933,0.000001,0.000000,0.000000,0.000001,0.000000,0.000001,,,,,,,,,,,,,,,,,,,,,,,,,,,,,,,,,,,,,,,,,,,,,,,,,,,,,,,,,,,
1690312190.790962,,,,,,,,,,,,,,,,,,,,,,,,,,,,,,,,,1678315273.750431,0.000200,0.000000,0.000000,0.000000,0.000000,0.000000,0.000200,0.000000,0.000000,0.000000,0.000000,0.000200,0.000000,0.000000,0.000000,0.000000,0.000000,0.000000,0.000000,0.000000,0.000000,0.000000,0.000000,1.000000,0.000000,0.000000,0.000000,0.000000,0.000009,0.000007,0.000080,0.000000,0.000000,0.000000,0.000000,0.000000,0.000000,0.000000,0.000000,0.000000,0.000000,0.000000,0.000000,0.000000,0.000000,0.000000,0.000000,0.000000,0.000000,0.000000,0.000000,0.000000,0.000000,0.000000,0.000000,0.000000,0.000000,0.000000
1690312190.793407,0.006903,0.000141,-0.002693,0.000001,0.000000,0.000000,0.000001,0.000000,0.000001,1678344328.275068,9.774520,-0.168237,-0.205177,0.000001,0.000000,0.000000,0.000001,0.000000,0.000001,-87.428979,-137.456125,-0.678040,-0.137907,0.705341,161.291956,-0.154069,0.000001,0.000000,0.000000,0.000001,0.000000,0.000001,,,,,,,,,,,,,,,,,,,,,,,,,,,,,,,,,,,,,,,,,,,,,,,,,,,,,,,,,,,
1690312190.800204,0.001282,0.001395,-0.000501,0.000001,0.000000,0.000000,0.000001,0.000000,0.000001,1678344328.282568,9.769225,-0.099599,-0.133790,0.000001,0.000000,0.000000,0.000001,0.000000,0.000001,-87.429375,-137.421427,-0.678025,-0.137998,0.705315,161.273224,-0.154171,0.000001,0.000000,0.000000,0.000001,0.000000,0.000001,,,,,,,,,,,,,,,,,,,,,,,,,,,,,,,,,,,,,,,,,,,,,,,,,,,,,,,,,,,
1690312190.808779,-0.001194,-0.001550,0.001558,0.000001,0.000000,0.000000,0.000001,0.000000,0.000001,1678344328.292568,9.817696,-0.147047,-0.052419,0.000001,0.000000,0.000000,0.000001,0.000000,0.000001,-87.428808,-137.382873,-0.678000,-0.138114,0.705288,161.255285,-0.154304,0.000001,0.000000,0.000000,0.000001,0.000000,0.000001,,,,,,,,,,,,,,,,,,,,,,,,,,,,,,,,,,,,,,,,,,,,,,,,,,,,,,,,,,,
1690312190.817353,0.004046,-0.001262,0.000248,0.000001,0.000000,0.000000,0.000001,0.000000,0.000001,1678344328.300068,9.732628,-0.111039,-0.116211,0.000001,0.000000,0.000000,0.000001,0.000000,0.000001,-87.428975,-137.362797,-0.677983,-0.138205,0.705265,161.250791,-0.154400,0.000001,0.000000,0.000000,0.000001,0.000000,0.000001,,,,,,,,,,,,,,,,,,,,,,,,,,,,,,,,,,,,,,,,,,,,,,,,,,,,,,,,,,,
1690312190.826145,0.003145,0.002439,0.003288,0.000001,0.000000,0.000000,0.000001,0.000000,0.000001,1678344328.307568,9.837413,-0.147068,-0.209628,0.000001,0.000000,0.000000,0.000001,0.000000,0.000001,-87.429506,-137.327501,-0.677970,-0.138295,0.705239,161.231083,-0.154499,0.000001,0.000000,0.000000,0.000001,0.000000,0.000001,,,,,,,,,,,,,,,,,,,,,,,,,,,,,,,,,,,,,,,,,,,,,,,,,,,,,,,,,,,
1690312190.835098,0.002641,0.000422,-0.000827,0.000001,0.000000,0.000000,0.000001,0.000000,0.000001,1678344328.315068,9.766984,-0.152806,-0.041617,0.000001,0.000000,0.000000,0.000001,0.000000,0.000001,-87.429186,-137.305683,-0.677949,-0.138388,0.705218,161.225509,-0.154602,0.000001,0.000000,0.000000,0.000001,0.000000,0.000001,,,,,,,,,,,,,,,,,,,,,,,,,,,,,,,,,,,,,,,,,,,,,,,,,,,,,,,,,,,
1690312190.843566,0.000054,-0.002562,-0.002323,0.000001,0.000000,0.000000,0.000001,0.000000,0.000001,1678344328.325068,9.845448,-0.136747,-0.140039,0.000001,0.000000,0.000000,0.000001,0.000000,0.000001,-87.429530,-137.274886,-0.677927,-0.138510,0.705186,161.215552,-0.154731,0.000001,0.000000,0.000000,0.000001,0.000000,0.000001,,,,,,,,,,,,,,,,,,,,,,,,,,,,,,,,,,,,,,,,,,,,,,,,,,,,,,,,,,,
1690312190.852227,0.004166,-0.001539,-0.001588,0.000001,0.000000,0.000000,0.000001,0.000000,0.000001,1678344328.332568,9.697795,-0.116693,-0.137580,0.000001,0.000000,0.000000,0.000001,0.000000,0.000001,-87.429848,-137.252411,-0.677910,-0.138605,0.705162,161.209225,-0.154831,0.000001,0.000000,0.000000,0.000001,0.000000,0.000001,,,,,,,,,,,,,,,,,,,,,,,,,,,,,,,,,,,,,,,,,,,,,,,,,,,,,,,,,,,
1690312190.860834,0.002017,0.003793,-0.000396,0.000001,0.000000,0.000000,0.000001,0.000000,0.000001,1678344328.340068,9.835364,-0.193730,-0.107051,0.000001,0.000000,0.000000,0.000001,0.000000,0.000001,-87.430609,-137.211852,-0.677898,-0.138697,0.705133,161.184694,-0.154933,0.000001,0.000000,0.000000,0.000001,0.000000,0.000001,,,,,,,,,,,,,,,,,,,,,,,,,,,,,,,,,,,,,,,,,,,,,,,,,,,,,,,,,,,
1690312190.870153,-0.000446,0.002600,0.001977,0.000001,0.000000,0.000000,0.000001,0.000000,0.000001,1678344328.350068,9.822104,-0.179959,0.004355,0.000001,0.000000,0.000000,0.000001,0.000000,0.000001,-87.430860,-137.178536,-0.677877,-0.138817,0.705102,161.172014,-0.155062,0.000001,0.000000,0.000000,0.000001,0.000000,0.000001,,,,,,,,,,,,,,,,,,,,,,,,,,,,,,,,,,,,,,,,,,,,,,,,,,,,,,,,,,,
1690312190.878599,0.001638,0.000890,0.002012,0.000001,0.000000,0.000000,0.000001,0.000000,0.000001,1678344328.357568,9.782026,-0.166395,-0.167324,0.000001,0.000000,0.000000,0.000001,0.000000,0.000001,-87.430763,-137.139098,-0.677859,-0.138909,0.705077,161.149078,-0.155170,0.000001,0.000000,0.000000,0.000001,0.000000,0.000001,,,,,,,,,,,,,,,,,,,,,,,,,,,,,,,,,,,,,,,,,,,,,,,,,,,,,,,,,,,
1690312190.884157,,,,,,,,,,,,,,,,,,,,,,,,,,,,,,,,,1678315273.843771,0.000200,0.000000,0.000000,0.000000,0.000000,0.000000,0.000200,0.000000,0.000000,0.000000,0.000000,0.000200,0.000000,0.000000,0.000000,0.000000,0.000000,0.000000,0.000000,0.000000,0.000000,0.000000,0.000000,1.000000,0.000000,0.000000,0.000000,0.000000,0.000076,0.000021,0.000269,0.000000,0.000000,0.000000,0.000000,0.000000,0.000000,0.000000,0.000000,0.000000,0.000000,0.000000,0.000000,0.000000,0.000000,0.000000,0.000000,0.000000,0.000000,0.000000,0.000000,0.000000,0.000000,0.000000,0.000000,0.000000,0.000000,0.000000
1690312190.887218,0.004258,0.002790,-0.000684,0.000001,0.000000,0.000000,0.000001,0.000000,0.000001,1678344328.372568,9.796526,-0.128898,-0.198032,0.000001,0.000000,0.000000,0.000001,0.000000,0.000001,-87.430296,-137.114544,-0.677819,-0.139090,0.705039,161.155197,-0.155358,0.000001,0.000000,0.000000,0.000001,0.000000,0.000001,,,,,,,,,,,,,,,,,,,,,,,,,,,,,,,,,,,,,,,,,,,,,,,,,,,,,,,,,,,
1690312190.895749,0.001165,-0.002159,-0.000632,0.000001,0.000000,0.000000,0.000001,0.000000,0.000001,1678344328.382568,9.805107,-0.193795,-0.113277,0.000001,0.000000,0.000000,0.000001,0.000000,0.000001,-87.430122,-137.093332,-0.677793,-0.139209,0.705012,161.154197,-0.155483,0.000001,0.000000,0.000000,0.000001,0.000000,0.000001,,,,,,,,,,,,,,,,,,,,,,,,,,,,,,,,,,,,,,,,,,,,,,,,,,,,,,,,,,,
1690312190.904835,0.002282,0.004155,-0.001827,0.000001,0.000000,0.000000,0.000001,0.000000,0.000001,1678344328.390068,9.799220,-0.184300,0.003393,0.000001,0.000000,0.000000,0.000001,0.000000,0.000001,-87.431485,-137.056944,-0.677785,-0.139299,0.704981,161.133137,-0.155578,0.000001,0.000000,0.000000,0.000001,0.000000,0.000001,,,,,,,,,,,,,,,,,,,,,,,,,,,,,,,,,,,,,,,,,,,,,,,,,,,,,,,,,,,
1690312190.912960,0.003829,0.002710,0.001586,0.000001,0.000000,0.000000,0.000001,0.000000,0.000001,1678344328.397568,9.778049,-0.115172,-0.111417,0.000001,0.000000,0.000000,0.000001,0.000000,0.000001,-87.432034,-137.008726,-0.677774,-0.139386,0.704952,161.100660,-0.155681,0.000001,0.000000,0.000000,0.000001,0.000000,0.000001,,,,,,,,,,,,,,,,,,,,,,,,,,,,,,,,,,,,,,,,,,,,,,,,,,,,,,,,,,,
1690312190.922000,0.000323,0.001744,-0.000706,0.000001,0.000000,0.000000,0.000001,0.000000,0.000001,1678344328.407568,9.757447,-0.188691,0.091548,0.000001,0.000000,0.000000,0.000001,0.000000,0.000001,-87.432449,-136.958461,-0.677756,-0.139495,0.704919,161.069930,-0.155807,0.000001,0.000000,0.000000,0.000001,0.000000,0.000001,,,,,,,,,,,,,,,,,,,,,,,,,,,,,,,,,,,,,,,,,,,,,,,,,,,,,,,,,,,
1690312190.930788,0.004321,0.000893,-0.000565,0.000001,0.000000,0.000000,0.000001,0.000000,0.000001,1678344328.415068,9.812951,-0.113546,-0.064946,0.000001,0.000000,0.000000,0.000001,0.000000,0.000001,-87.432295,-136.949024,-0.677736,-0.139590,0.704900,161.076274,-0.155903,0.000001,0.000000,0.000000,0.000001,0.000000,0.000001,,,,,,,,,,,,,,,,,,,,,,,,,,,,,,,,,,,,,,,,,,,,,,,,,,,,,,,,,,,
1690312190.939425,0.003383,-0.000478,-0.002015,0.000001,0.000000,0.000000,0.000001,0.000000,0.000001,1678344328.422568,9.754920,-0.100184,-0.273882,0.000001,0.000000,0.000000,0.000001,0.000000,0.000001,-87.432988,-136.927282,-0.677721,-0.139682,0.704874,161.069992,-0.155998,0.000001,0.000000,0.000000,0.000001,0.000000,0.000001,,,,,,,,,,,,,,,,,,,,,,,,,,,,,,,,,,,,,,,,,,,,,,,,,,,,,,,,,,,
1690312190.948586,0.000406,0.003900,-0.002383,0.000001,0.000000,0.000000,0.000001,0.000000,0.000001,1678344328.432568,9.770635,-0.136246,-0.130248,0.000001,0.000000,0.000000,0.000001,0.000000,0.000001,-87.433895,-136.894571,-0.677703,-0.139804,0.704840,161.057863,-0.156124,0.000001,0.000000,0.000000,0.000001,0.000000,0.000001,,,,,,,,,,,,,,,,,,,,,,,,,,,,,,,,,,,,,,,,,,,,,,,,,,,,,,,,,,,
1690312190.956451,0.002836,0.002825,-0.001688,0.000001,0.000000,0.000000,0.000001,0.000000,0.000001,1678344328.440068,9.842396,-0.158865,-0.103951,0.000001,0.000000,0.000000,0.000001,0.000000,0.000001,-87.435654,-136.864803,-0.677695,-0.139898,0.704807,161.043693,-0.156218,0.000001,0.000000,0.000000,0.000001,0.000000,0.000001,,,,,,,,,,,,,,,,,,,,,,,,,,,,,,,,,,,,,,,,,,,,,,,,,,,,,,,,,,,
1690312190.965394,0.005857,0.000345,-0.001161,0.000001,0.000000,0.000000,0.000001,0.000000,0.000001,1678344328.447568,9.710240,-0.106713,-0.079741,0.000001,0.000000,0.000000,0.000001,0.000000,0.000001,-87.436202,-136.819947,-0.677683,-0.139989,0.704778,161.014966,-0.156323,0.000001,0.000000,0.000000,0.000001,0.000000,0.000001,,,,,,,,,,,,,,,,,,,,,,,,,,,,,,,,,,,,,,,,,,,,,,,,,,,,,,,,,,,
1690312190.974283,0.003459,-0.001609,-0.001405,0.000001,0.000000,0.000000,0.000001,0.000000,0.000001,1678344328.455068,9.874010,-0.140800,-0.134697,0.000001,0.000000,0.000000,0.000001,0.000000,0.000001,-87.435697,-136.800675,-0.677660,-0.140087,0.704758,161.012685,-0.156429,0.000001,0.000000,0.000000,0.000001,0.000000,0.000001,,,,,,,,,,,,,,,,,,,,,,,,,,,,,,,,,,,,,,,,,,,,,,,,,,,,,,,,,,,
1690312190.981927,,,,,,,,,,,,,,,,,,,,,,,,,,,,,,,,,1678315273.942525,0.000200,0.000000,0.000000,0.000000,0.000000,0.000000,0.000200,0.000000,0.000000,0.000000,0.000000,0.000200,0.000000,0.000000,0.000000,0.000000,0.000000,0.000000,0.000000,0.000000,0.000000,0.000000,0.000000,1.000000,0.000000,0.000000,0.000000,0.000000,0.000387,0.000056,0.000749,0.000000,0.000000,0.000000,0.000000,0.000000,0.000000,0.000000,0.000000,0.000000,0.000000,0.000000,0.000000,0.000000,0.000000,0.000000,0.000000,0.000000,0.000000,0.000000,0.000000,0.000000,0.000000,0.000000,0.000000,0.000000,0.000000,0.000000
1690312190.983099,0.001431,0.000060,-0.002237,0.000001,0.000000,0.000000,0.000001,0.000000,0.000001,1678344328.465068,9.764004,-0.110500,-0.005649,0.000001,0.000000,0.000000,0.000001,0.000000,0.000001,-87.436242,-136.776424,-0.677638,-0.140211,0.704726,161.009196,-0.156556,0.000001,0.000000,0.000000,0.000001,0.000000,0.000001,,,,,,,,,,,,,,,,,,,,,,,,,,,,,,,,,,,,,,,,,,,,,,,,,,,,,,,,,,,
1690312190.991074,0.002188,-0.005518,0.002862,0.000001,0.000000,0.000000,0.000001,0.000000,0.000001,1678344328.472568,9.857294,-0.221848,-0.111142,0.000001,0.000000,0.000000,0.000001,0.000000,0.000001,-87.435590,-136.751877,-0.677617,-0.140295,0.704707,160.999697,-0.156653,0.000001,0.000000,0.000000,0.000001,0.000000,0.000001,,,,,,,,,,,,,,,,,,,,,,,,,,,,,,,,,,,,,,,,,,,,,,,,,,,,,,,,,,,
1690312190.999913,0.001862,-0.000760,-0.000763,0.000001,0.000000,0.000000,0.000001,0.000000,0.000001,1678344328.482568,9.809041,-0.163585,-0.172847,0.000001,0.000000,0.000000,0.000001,0.000000,0.000001,-87.435340,-136.720439,-0.677593,-0.140411,0.704679,160.988408,-0.156780,0.000001,0.000000,0.000000,0.000001,0.000000,0.000001,,,,,,,,,,,,,,,,,,,,,,,,,,,,,,,,,,,,,,,,,,,,,,,,,,,,,,,,,,,
1690312191.008725,-0.001009,-0.000884,0.001591,0.000001,0.000000,0.000000,0.000001,0.000000,0.000001,1678344328.490068,9.809852,-0.179091,-0.313876,0.000001,0.000000,0.000000,0.000001,0.000000,0.000001,-87.436273,-136.690419,-0.677582,-0.140497,0.704652,160.973098,-0.156871,0.000001,0.000000,0.000000,0.000001,0.000000,0.000001,,,,,,,,,,,,,,,,,,,,,,,,,,,,,,,,,,,,,,,,,,,,,,,,,,,,,,,,,,,
1690312191.017596,0.004745,-0.001557,0.002243,0.000001,0.000000,0.000000,0.000001,0.000000,0.000001,1678344328.497568,9.779451,-0.160370,-0.179565,0.000001,0.000000,0.000000,0.000001,0.000000,0.000001,-87.435771,-136.658861,-0.677562,-0.140587,0.704631,160.957603,-0.156975,0.000001,0.000000,0.000000,0.000001,0.000000,0.000001,,,,,,,,,,,,,,,,,,,,,,,,,,,,,,,,,,,,,,,,,,,,,,,,,,,,,,,,,,,
1690312191.026440,0.004265,0.003933,-0.001258,0.000001,0.000000,0.000000,0.000001,0.000000,0.000001,1678344328.505068,9.805443,-0.145358,-0.131199,0.000001,0.000000,0.000000,0.000001,0.000000,0.000001,-87.435906,-136.637744,-0.677545,-0.140675,0.704608,160.951597,-0.157069,0.000001,0.000000,0.000000,0.000001,0.000000,0.000001,,,,,,,,,,,,,,,,,,,,,,,,,,,,,,,,,,,,,,,,,,,,,,,,,,,,,,,,,,,
1690312191.035136,0.003938,0.001768,-0.002569,0.000001,0.000000,0.000000,0.000001,0.000000,0.000001,1678344328.515068,9.791448,-0.208100,0.005314,0.000001,0.000000,0.000000,0.000001,0.000000,0.000001,-87.436612,-136.604498,-0.677524,-0.140799,0.704574,160.939413,-0.157199,0.000001,0.000000,0.000000,0.000001,0.000000,0.000001,,,,,,,,,,,,,,,,,,,,,,,,,,,,,,,,,,,,,,,,,,,,,,,,,,,,,,,,,,,
1690312191.043596,-0.000979,0.002041,-0.002201,0.000001,0.000000,0.000000,0.000001,0.000000,0.000001,1678344328.522568,9.785008,-0.132269,0.091316,0.000001,0.000000,0.000000,0.000001,0.000000,0.000001,-87.436944,-136.580195,-0.677508,-0.140891,0.704550,160.930723,-0.157296,0.000001,0.000000,0.000000,0.000001,0.000000,0.000001,,,,,,,,,,,,,,,,,,,,,,,,,,,,,,,,,,,,,,,,,,,,,,,,,,,,,,,,,,,
1690312191.052321,-0.000286,-0.000878,-0.000495,0.000001,0.000000,0.000000,0.000001,0.000000,0.000001,1678344328.530068,9.744620,-0.143993,0.015929,0.000001,0.000000,0.000000,0.000001,0.000000,0.000001,-87.437498,-136.554064,-0.677494,-0.140980,0.704524,160.919838,-0.157391,0.000001,0.000000,0.000000,0.000001,0.000000,0.000001,,,,,,,,,,,,,,,,,,,,,,,,,,,,,,,,,,,,,,,,,,,,,,,,,,,,,,,,,,,
1690312191.060973,0.000717,0.000862,-0.002083,0.000001,0.000000,0.000000,0.000001,0.000000,0.000001,1678344328.547568,9.782338,-0.118491,-0.085905,0.000001,0.000000,0.000000,0.000001,0.000000,0.000001,-87.438718,-136.512800,-0.677457,-0.141197,0.704468,160.914824,-0.157611,0.000001,0.000000,0.000000,0.000001,0.000000,0.000001,,,,,,,,,,,,,,,,,,,,,,,,,,,,,,,,,,,,,,,,,,,,,,,,,,,,,,,,,,,
1690312191.069766,0.001628,0.005289,0.000260,0.000001,0.000000,0.000000,0.000001,0.000000,0.000001,1678344328.555068,9.851530,-0.207765,-0.190437,0.000001,0.000000,0.000000,0.000001,0.000000,0.000001,-87.437887,-136.485178,-0.677435,-0.141282,0.704449,160.902476,-0.157711,0.000001,0.000000,0.000000,0.000001,0.000000,0.000001,,,,,,,,,,,,,,,,,,,,,,,,,,,,,,,,,,,,,,,,,,,,,,,,,,,,,,,,,,,
1690312191.078592,0.001838,0.001927,0.000309,0.000001,0.000000,0.000000,0.000001,0.000000,0.000001,1678344328.562568,9.778690,-0.157364,-0.053024,0.000001,0.000000,0.000000,0.000001,0.000000,0.000001,-87.438520,-136.448526,-0.677422,-0.141373,0.704421,160.881796,-0.157812,0.000001,0.000000,0.000000,0.000001,0.000000,0.000001,,,,,,,,,,,,,,,,,,,,,,,,,,,,,,,,,,,,,,,,,,,,,,,,,,,,,,,,,,,
1690312191.082188,,,,,,,,,,,,,,,,,,,,,,,,,,,,,,,,,1678315274.041418,0.000200,0.000000,0.000000,0.000000,0.000000,0.000000,0.000200,0.000000,0.000000,0.000000,0.000000,0.000200,0.000000,0.000000,0.000000,0.000000,0.000000,0.000000,0.000000,0.000000,0.000000,0.000000,0.000000,1.000000,0.000000,0.000000,0.000000,0.000000,-0.000052,-0.000011,-0.000183,0.000000,0.000000,0.000000,0.000000,0.000000,0.000000,0.000000,0.000000,0.000000,0.000000,0.000000,0.000000,0.000000,0.000000,0.000000,0.000000,0.000000,0.000000,0.000000,0.000000,0.000000,0.000000,0.000000,0.000000,0.000000,0.000000,0.000000
1690312191.086945,0.005441,0.001117,-0.000469,0.000001,0.000000,0.000000,0.000001,0.000000,0.000001,1678344328.572568,9.788537,-0.140394,-0.023074,0.000001,0.000000,0.000000,0.000001,0.000000,0.000001,-87.439493,-136.404715,-0.677404,-0.141499,0.704383,160.859503,-0.157946,0.000001,0.000000,0.000000,0.000001,0.000000,0.000001,,,,,,,,,,,,,,,,,,,,,,,,,,,,,,,,,,,,,,,,,,,,,,,,,,,,,,,,,,,
1690312191.095617,0.005033,0.001309,-0.002559,0.000001,0.000000,0.000000,0.000001,0.000000,0.000001,1678344328.580068,9.791422,-0.048122,-0.010625,0.000001,0.000000,0.000000,0.000001,0.000000,0.000001,-87.440146,-136.369134,-0.677391,-0.141589,0.704355,160.839644,-0.158045,0.000001,0.000000,0.000000,0.000001,0.000000,0.000001,,,,,,,,,,,,,,,,,,,,,,,,,,,,,,,,,,,,,,,,,,,,,,,,,,,,,,,,,,,
1690312191.104426,0.000546,0.005036,0.003477,0.000001,0.000000,0.000000,0.000001,0.000000,0.000001,1678344328.587568,9.810398,-0.205864,-0.035639,0.000001,0.000000,0.000000,0.000001,0.000000,0.000001,-87.440809,-136.327700,-0.677380,-0.141670,0.704328,160.812707,-0.158139,0.000001,0.000000,0.000000,0.000001,0.000000,0.000001,,,,,,,,,,,,,,,,,,,,,,,,,,,,,,,,,,,,,,,,,,,,,,,,,,,,,,,,,,,
1690312191.113782,0.007743,-0.006223,-0.000212,0.000001,0.000000,0.000000,0.000001,0.000000,0.000001,1678344328.597568,9.724166,-0.145047,0.070280,0.000001,0.000000,0.000000,0.000001,0.000000,0.000001,-87.441080,-136.293886,-0.677356,-0.141798,0.704295,160.800785,-0.158275,0.000001,0.000000,0.000000,0.000001,0.000000,0.000001,,,,,,,,,,,,,,,,,,,,,,,,,,,,,,,,,,,,,,,,,,,,,,,,,,,,,,,,,,,
1690312191.123325,-0.001512,0.001947,0.003416,0.000001,0.000000,0.000000,0.000001,0.000000,0.000001,1678344328.605068,9.852837,-0.210250,0.062346,0.000001,0.000000,0.000000,0.000001,0.000000,0.000001,-87.440088,-136.273429,-0.677333,-0.141883,0.704278,160.795489,-0.158373,0.000001,0.000000,0.000000,0.000001,0.000000,0.000001,,,,,,,,,,,,,,,,,,,,,,,,,,,,,,,,,,,,,,,,,,,,,,,,,,,,,,,,,,,
1690312191.130426,0.003446,0.000653,0.000013,0.000001,0.000000,0.000000,0.000001,0.000000,0.000001,1678344328.612568,9.757233,-0.083258,-0.218709,0.000001,0.000000,0.000000,0.000001,0.000000,0.000001,-87.440484,-136.242989,-0.677318,-0.141974,0.704252,160.780777,-0.158471,0.000001,0.000000,0.000000,0.000001,0.000000,0.000001,,,,,,,,,,,,,,,,,,,,,,,,,,,,,,,,,,,,,,,,,,,,,,,,,,,,,,,,,,,
1690312191.139286,0.002316,0.000792,0.001731,0.000001,0.000000,0.000000,0.000001,0.000000,0.000001,1678344328.620068,9.796927,-0.172945,-0.277642,0.000001,0.000000,0.000000,0.000001,0.000000,0.000001,-87.441229,-136.220128,-0.677303,-0.142070,0.704225,160.774062,-0.158570,0.000001,0.000000,0.000000,0.000001,0.000000,0.000001,,,,,,,,,,,,,,,,,,,,,,,,,,,,,,,,,,,,,,,,,,,,,,,,,,,,,,,,,,,
1690312191.147908,-0.000164,0.000636,-0.003201,0.000001,0.000000,0.000000,0.000001,0.000000,0.000001,1678344328.630068,9.841706,-0.159876,-0.105318,0.000001,0.000000,0.000000,0.000001,0.000000,0.000001,-87.441363,-136.192618,-0.677279,-0.142193,0.704194,160.767457,-0.158700,0.000001,0.000000,0.000000,0.000001,0.000000,0.000001,,,,,,,,,,,,,,,,,,,,,,,,,,,,,,,,,,,,,,,,,,,,,,,,,,,,,,,,,,,
1690312191.157028,0.003322,0.002769,-0.003663,0.000001,0.000000,0.000000,0.000001,0.000000,0.000001,1678344328.637568,9.819129,-0.209290,-0.124123,0.000001,0.000000,0.000000,0.000001,0.000000,0.000001,-87.442755,-136.165850,-0.677267,-0.142290,0.704163,160.756898,-0.158797,0.000001,0.000000,0.000000,0.000001,0.000000,0.000001,,,,,,,,,,,,,,,,,,,,,,,,,,,,,,,,,,,,,,,,,,,,,,,,,,,,,,,,,,,
1690312191.165112,0.002883,0.001907,-0.000085,0.000001,0.000000,0.000000,0.000001,0.000000,0.000001,1678344328.645068,9.730387,-0.147151,-0.121665,0.000001,0.000000,0.000000,0.000001,0.000000,0.000001,-87.442255,-136.140245,-0.677246,-0.142381,0.704142,160.747202,-0.158899,0.000001,0.000000,0.000000,0.000001,0.000000,0.000001,,,,,,,,,,,,,,,,,,,,,,,,,,,,,,,,,,,,,,,,,,,,,,,,,,,,,,,,,,,
1690312191.174047,0.002681,0.000831,-0.000846,0.000001,0.000000,0.000000,0.000001,0.000000,0.000001,1678344328.655068,9.807086,-0.118831,-0.066545,0.000001,0.000000,0.000000,0.000001,0.000000,0.000001,-87.442451,-136.106405,-0.677224,-0.142498,0.704111,160.733738,-0.159027,0.000001,0.000000,0.000000,0.000001,0.000000,0.000001,,,,,,,,,,,,,,,,,,,,,,,,,,,,,,,,,,,,,,,,,,,,,,,,,,,,,,,,,,,
1690312191.181566,,,,,,,,,,,,,,,,,,,,,,,,,,,,,,,,,1678315274.140792,0.000200,0.000000,0.000000,0.000000,0.000000,0.000000,0.000200,0.000000,0.000000,0.000000,0.000000,0.000200,0.000000,0.000000,0.000000,0.000000,0.000000,0.000000,0.000000,0.000000,0.000000,0.000000,0.000000,1.000000,0.000000,0.000000,0.000000,0.000000,0.000027,0.000009,0.000085,0.000000,0.000000,0.000000,0.000000,0.000000,0.000000,0.000000,0.000000,0.000000,0.000000,0.000000,0.000000,0.000000,0.000000,0.000000,0.000000,0.000000,0.000000,0.000000,0.000000,0.000000,0.000000,0.000000,0.000000,0.000000,0.000000,0.000000
1690312191.183121,0.000986,0.002857,-0.000694,0.000001,0.000000,0.000000,0.000001,0.000000,0.000001,1678344328.670068,9.837198,-0.188286,-0.075031,0.000001,0.000000,0.000000,0.000001,0.000000,0.000001,-87.444589,-136.028913,-0.677203,-0.142681,0.704050,160.687731,-0.159224,0.000001,0.000000,0.000000,0.000001,0.000000,0.000001,,,,,,,,,,,,,,,,,,,,,,,,,,,,,,,,,,,,,,,,,,,,,,,,,,,,,,,,,,,
1690312191.192213,0.000709,0.000889,-0.001951,0.000001,0.000000,0.000000,0.000001,0.000000,0.000001,1678344328.680068,9.813859,-0.249719,-0.030805,0.000001,0.000000,0.000000,0.000001,0.000000,0.000001,-87.445158,-136.006577,-0.677182,-0.142797,0.704019,160.684946,-0.159343,0.000001,0.000000,0.000000,0.000001,0.000000,0.000001,,,,,,,,,,,,,,,,,,,,,,,,,,,,,,,,,,,,,,,,,,,,,,,,,,,,,,,,,,,
1690312191.200667,0.004261,-0.000797,-0.002649,0.000001,0.000000,0.000000,0.000001,0.000000,0.000001,1678344328.687568,9.801890,-0.136049,-0.062150,0.000001,0.000000,0.000000,0.000001,0.000000,0.000001,-87.446391,-135.997722,-0.677168,-0.142896,0.703992,160.691843,-0.159434,0.000001,0.000000,0.000000,0.000001,0.000000,0.000001,,,,,,,,,,,,,,,,,,,,,,,,,,,,,,,,,,,,,,,,,,,,,,,,,,,,,,,,,,,
1690312191.208649,0.004310,0.001144,-0.001629,0.000001,0.000000,0.000000,0.000001,0.000000,0.000001,1678344328.695068,9.735298,-0.117001,-0.094027,0.000001,0.000000,0.000000,0.000001,0.000000,0.000001,-87.445421,-135.978521,-0.677143,-0.142990,0.703974,160.689189,-0.159539,0.000001,0.000000,0.000000,0.000001,0.000000,0.000001,,,,,,,,,,,,,,,,,,,,,,,,,,,,,,,,,,,,,,,,,,,,,,,,,,,,,,,,,,,
1690312191.217637,0.005928,0.001521,-0.002213,0.000001,0.000000,0.000000,0.000001,0.000000,0.000001,1678344328.705068,9.764673,-0.144764,-0.160416,0.000001,0.000000,0.000000,0.000001,0.000000,0.000001,-87.445952,-135.937282,-0.677123,-0.143108,0.703939,160.668362,-0.159668,0.000001,0.000000,0.000000,0.000001,0.000000,0.000001,,,,,,,,,,,,,,,,,,,,,,,,,,,,,,,,,,,,,,,,,,,,,,,,,,,,,,,,,,,
1690312191.226349,0.000607,0.002141,0.001032,0.000001,0.000000,0.000000,0.000001,0.000000,0.000001,1678344328.712568,9.776616,-0.179769,-0.121279,0.000001,0.000000,0.000000,0.000001,0.000000,0.000001,-87.446357,-135.891273,-0.677110,-0.143193,0.703912,160.637801,-0.159769,0.000001,0.000000,0.000000,0.000001,0.000000,0.000001,,,,,,,,,,,,,,,,,,,,,,,,,,,,,,,,,,,,,,,,,,,,,,,,,,,,,,,,,,,
1690312191.234907,0.001923,-0.001839,0.001361,0.000001,0.000000,0.000000,0.000001,0.000000,0.000001,1678344328.720068,9.781241,-0.135003,-0.095936,0.000001,0.000000,0.000000,0.000001,0.000000,0.000001,-87.446099,-135.866743,-0.677090,-0.143287,0.703889,160.629655,-0.159872,0.000001,0.000000,0.000000,0.000001,0.000000,0.000001,,,,,,,,,,,,,,,,,,,,,,,,,,,,,,,,,,,,,,,,,,,,,,,,,,,,,,,,,,,
1690312191.243618,0.000484,-0.002262,0.000606,0.000001,0.000000,0.000000,0.000001,0.000000,0.000001,1678344328.727568,9.779930,-0.078955,-0.115378,0.000001,0.000000,0.000000,0.000001,0.000000,0.000001,-87.445645,-135.855102,-0.677068,-0.143376,0.703870,160.633121,-0.159966,0.000001,0.000000,0.000000,0.000001,0.000000,0.000001,,,,,,,,,,,,,,,,,,,,,,,,,,,,,,,,,,,,,,,,,,,,,,,,,,,,,,,,,,,
1690312191.252279,0.002822,0.006505,-0.001465,0.000001,0.000000,0.000000,0.000001,0.000000,0.000001,1678344328.737568,9.798506,-0.097598,-0.196964,0.000001,0.000000,0.000000,0.000001,0.000000,0.000001,-87.446366,-135.819412,-0.677049,-0.143492,0.703837,160.617304,-0.160089,0.000001,0.000000,0.000000,0.000001,0.000000,0.000001,,,,,,,,,,,,,,,,,,,,,,,,,,,,,,,,,,,,,,,,,,,,,,,,,,,,,,,,,,,
1690312191.260875,0.002221,0.002953,-0.001404,0.000001,0.000000,0.000000,0.000001,0.000000,0.000001,1678344328.745068,9.793808,-0.247158,0.054266,0.000001,0.000000,0.000000,0.000001,0.000000,0.000001,-87.445892,-135.804242,-0.677028,-0.143579,0.703818,160.617093,-0.160182,0.000001,0.000000,0.000000,0.000001,0.000000,0.000001,,,,,,,,,,,,,,,,,,,,,,,,,,,,,,,,,,,,,,,,,,,,,,,,,,,,,,,,,,,
1690312191.270301,0.001257,-0.000753,0.000324,0.000001,0.000000,0.000000,0.000001,0.000000,0.000001,1678344328.762568,9.728384,-0.191864,-0.118106,0.000001,0.000000,0.000000,0.000001,0.000000,0.000001,-87.445968,-135.746486,-0.676987,-0.143783,0.703765,160.594783,-0.160405,0.000001,0.000000,0.000000,0.000001,0.000000,0.000001,,,,,,,,,,,,,,,,,,,,,,,,,,,,,,,,,,,,,,,,,,,,,,,,,,,,,,,,,,,
1690312191.278506,0.003076,0.001965,-0.002411,0.000001,0.000000,0.000000,0.000001,0.000000,0.000001,1678344328.770068,9.854009,-0.084820,-0.336097,0.000001,0.000000,0.000000,0.000001,0.000000,0.000001,-87.446567,-135.715591,-0.676974,-0.143870,0.703739,160.578956,-0.160499,0.000001,0.000000,0.000000,0.000001,0.000000,0.000001,,,,,,,,,,,,,,,,,,,,,,,,,,,,,,,,,,,,,,,,,,,,,,,,,,,,,,,,,,,
1690312191.287091,0.000677,0.004002,-0.000574,0.000001,0.000000,0.000000,0.000001,0.000000,0.000001,1678344328.777568,9.701182,-0.136076,-0.123809,0.000001,0.000000,0.000000,0.000001,0.000000,0.000001,-87.447890,-135.682844,-0.676963,-0.143966,0.703707,160.562276,-0.160598,0.000001,0.000000,0.000000,0.000001,0.000000,0.000001,,,,,,,,,,,,,,,,,,,,,,,,,,,,,,,,,,,,,,,,,,,,,,,,,,,,,,,,,,,
1690312191.295608,0.000111,0.001400,0.001726,0.000001,0.000000,0.000000,0.000001,0.000000,0.000001,1678344328.787568,9.884046,-0.236101,-0.198139,0.000001,0.000000,0.000000,0.000001,0.000000,0.000001,-87.447907,-135.655200,-0.676940,-0.144079,0.703678,160.554196,-0.160720,0.000001,0.000000,0.000000,0.000001,0.000000,0.000001,,,,,,,,,,,,,,,,,,,,,,,,,,,,,,,,,,,,,,,,,,,,,,,,,,,,,,,,,,,
1690312191.304407,-0.001939,-0.000808,-0.000224,0.000001,0.000000,0.000000,0.000001,0.000000,0.000001,1678344328.795068,9.773159,-0.176018,-0.108310,0.000001,0.000000,0.000000,0.000001,0.000000,0.000001,-87.447550,-135.640870,-0.676919,-0.144166,0.703659,160.554727,-0.160812,0.000001,0.000000,0.000000,0.000001,0.000000,0.000001,,,,,,,,,,,,,,,,,,,,,,,,,,,,,,,,,,,,,,,,,,,,,,,,,,,,,,,,,,,
1690312191.312864,0.001568,-0.000043,0.000370,0.000001,0.000000,0.000000,0.000001,0.000000,0.000001,1678344328.802568,9.765577,-0.127540,-0.122643,0.000001,0.000000,0.000000,0.000001,0.000000,0.000001,-87.447508,-135.603260,-0.676902,-0.144253,0.703635,160.532665,-0.160913,0.000001,0.000000,0.000000,0.000001,0.000000,0.000001,,,,,,,,,,,,,,,,,,,,,,,,,,,,,,,,,,,,,,,,,,,,,,,,,,,,,,,,,,,
1690312191.321993,0.001445,-0.000694,0.001132,0.000001,0.000000,0.000000,0.000001,0.000000,0.000001,1678344328.810068,9.808397,-0.137310,-0.142662,0.000001,0.000000,0.000000,0.000001,0.000000,0.000001,-87.447247,-135.569954,-0.676885,-0.144337,0.703612,160.514428,-0.161010,0.000001,0.000000,0.000000,0.000001,0.000000,0.000001,,,,,,,,,,,,,,,,,,,,,,,,,,,,,,,,,,,,,,,,,,,,,,,,,,,,,,,,,,,
1690312191.328477,,,,,,,,,,,,,,,,,,,,,,,,,,,,,,,,,1678315274.287556,0.000200,0.000000,0.000000,0.000000,0.000000,0.000000,0.000200,0.000000,0.000000,0.000000,0.000000,0.000200,0.000000,0.000000,0.000000,0.000000,0.000000,0.000000,0.000000,0.000000,0.000000,0.000000,0.000000,1.000000,0.000000,0.000000,0.000000,0.000000,0.000244,0.000024,0.000291,0.000000,0.000000,0.000000,0.000000,0.000000,0.000000,0.000000,0.000000,0.000000,0.000000,0.000000,0.000000,0.000000,0.000000,0.000000,0.000000,0.000000,0.000000,0.000000,0.000000,0.000000,0.000000,0.000000,0.000000,0.000000,0.000000,0.000000
1690312191.330635,0.003313,-0.002046,-0.000109,0.000001,0.000000,0.000000,0.000001,0.000000,0.000001,1678344328.820068,9.784579,-0.152322,0.064634,0.000001,0.000000,0.000000,0.000001,0.000000,0.000001,-87.447057,-135.538790,-0.676859,-0.144457,0.703582,160.504082,-0.161141,0.000001,0.000000,0.000000,0.000001,0.000000,0.000001,,,,,,,,,,,,,,,,,,,,,,,,,,,,,,,,,,,,,,,,,,,,,,,,,,,,,,,,,,,
1690312191.339247,0.001735,0.001345,0.003131,0.000001,0.000000,0.000000,0.000001,0.000000,0.000001,1678344328.827568,9.822987,-0.127845,-0.013366,0.000001,0.000000,0.000000,0.000001,0.000000,0.000001,-87.447333,-135.503231,-0.676844,-0.144543,0.703556,160.483773,-0.161239,0.000001,0.000000,0.000000,0.000001,0.000000,0.000001,,,,,,,,,,,,,,,,,,,,,,,,,,,,,,,,,,,,,,,,,,,,,,,,,,,,,,,,,,,
1690312191.348243,-0.000703,-0.000094,0.000254,0.000001,0.000000,0.000000,0.000001,0.000000,0.000001,1678344328.835068,9.747005,-0.142127,-0.033500,0.000001,0.000000,0.000000,0.000001,0.000000,0.000001,-87.446372,-135.490009,-0.676819,-0.144632,0.703540,160.486060,-0.161337,0.000001,0.000000,0.000000,0.000001,0.000000,0.000001,,,,,,,,,,,,,,,,,,,,,,,,,,,,,,,,,,,,,,,,,,,,,,,,,,,,,,,,,,,
1690312191.356451,0.000686,0.002641,0.002488,0.000001,0.000000,0.000000,0.000001,0.000000,0.000001,1678344328.845068,9.777115,-0.195063,0.050872,0.000001,0.000000,0.000000,0.000001,0.000000,0.000001,-87.446397,-135.452641,-0.676796,-0.144747,0.703509,160.468793,-0.161464,0.000001,0.000000,0.000000,0.000001,0.000000,0.000001,,,,,,,,,,,,,,,,,,,,,,,,,,,,,,,,,,,,,,,,,,,,,,,,,,,,,,,,,,,
1690312191.365433,0.003942,-0.003855,0.002397,0.000001,0.000000,0.000000,0.000001,0.000000,0.000001,1678344328.852568,9.832141,-0.133479,-0.147770,0.000001,0.000000,0.000000,0.000001,0.000000,0.000001,-87.445332,-135.434704,-0.676770,-0.144842,0.703490,160.467605,-0.161570,0.000001,0.000000,0.000000,0.000001,0.000000,0.000001,,,,,,,,,,,,,,,,,,,,,,,,,,,,,,,,,,,,,,,,,,,,,,,,,,,,,,,,,,,
1690312191.374133,0.006881,0.005475,-0.003894,0.000001,0.000000,0.000000,0.000001,0.000000,0.000001,1678344328.860068,9.805110,-0.173451,-0.118357,0.000001,0.000000,0.000000,0.000001,0.000000,0.000001,-87.446977,-135.391380,-0.676761,-0.144939,0.703455,160.440967,-0.161674,0.000001,0.000000,0.000000,0.000001,0.000000,0.000001,,,,,,,,,,,,,,,,,,,,,,,,,,,,,,,,,,,,,,,,,,,,,,,,,,,,,,,,,,,
1690312191.382755,0.001866,0.002695,-0.002210,0.000001,0.000000,0.000000,0.000001,0.000000,0.000001,1678344328.870068,9.856488,-0.191753,-0.034480,0.000001,0.000000,0.000000,0.000001,0.000000,0.000001,-87.447811,-135.356189,-0.676743,-0.145056,0.703420,160.425625,-0.161796,0.000001,0.000000,0.000000,0.000001,0.000000,0.000001,,,,,,,,,,,,,,,,,,,,,,,,,,,,,,,,,,,,,,,,,,,,,,,,,,,,,,,,,,,
1690312191.391900,0.002464,0.000215,0.000442,0.000001,0.000000,0.000000,0.000001,0.000000,0.000001,1678344328.877568,9.742475,-0.186360,-0.160187,0.000001,0.000000,0.000000,0.000001,0.000000,0.000001,-87.447894,-135.334307,-0.676725,-0.145146,0.703397,160.419179,-0.161892,0.000001,0.000000,0.000000,0.000001,0.000000,0.000001,,,,,,,,,,,,,,,,,,,,,,,,,,,,,,,,,,,,,,,,,,,,,,,,,,,,,,,,,,,
1690312191.399861,0.004020,0.001491,-0.000322,0.000001,0.000000,0.000000,0.000001,0.000000,0.000001,1678344328.885068,9.799433,-0.115102,-0.137148,0.000001,0.000000,0.000000,0.000001,0.000000,0.000001,-87.447909,-135.315977,-0.676705,-0.145241,0.703374,160.417024,-0.161992,0.000001,0.000000,0.000000,0.000001,0.000000,0.000001,,,,,,,,,,,,,,,,,,,,,,,,,,,,,,,,,,,,,,,,,,,,,,,,,,,,,,,,,,,
1690312191.408503,0.000913,0.000253,-0.000112,0.000001,0.000000,0.000000,0.000001,0.000000,0.000001,1678344328.892568,9.777975,-0.113961,-0.052350,0.000001,0.000000,0.000000,0.000001,0.000000,0.000001,-87.448068,-135.283381,-0.676688,-0.145331,0.703348,160.400198,-0.162092,0.000001,0.000000,0.000000,0.000001,0.000000,0.000001,,,,,,,,,,,,,,,,,,,,,,,,,,,,,,,,,,,,,,,,,,,,,,,,,,,,,,,,,,,
1690312191.417320,0.005258,-0.002272,-0.000279,0.000001,0.000000,0.000000,0.000001,0.000000,0.000001,1678344328.902568,9.778998,-0.138040,-0.174242,0.000001,0.000000,0.000000,0.000001,0.000000,0.000001,-87.447530,-135.244212,-0.676660,-0.145453,0.703318,160.382680,-0.162231,0.000001,0.000000,0.000000,0.000001,0.000000,0.000001,,,,,,,,,,,,,,,,,,,,,,,,,,,,,,,,,,,,,,,,,,,,,,,,,,,,,,,,,,,
1690312191.425680,0.000737,0.001576,0.001162,0.000001,0.000000,0.000000,0.000001,0.000000,0.000001,1678344328.910068,9.801960,-0.190716,-0.120124,0.000001,0.000000,0.000000,0.000001,0.000000,0.000001,-87.447583,-135.199743,-0.676645,-0.145537,0.703291,160.353587,-0.162332,0.000001,0.000000,0.000000,0.000001,0.000000,0.000001,,,,,,,,,,,,,,,,,,,,,,,,,,,,,,,,,,,,,,,,,,,,,,,,,,,,,,,,,,,
1690312191.427888,,,,,,,,,,,,,,,,,,,,,,,,,,,,,,,,,1678315274.387034,0.000200,0.000000,0.000000,0.000000,0.000000,0.000000,0.000200,0.000000,0.000000,0.000000,0.000000,0.000200,0.000000,0.000000,0.000000,0.000000,0.000000,0.000000,0.000000,0.000000,0.000000,0.000000,0.000000,1.000000,0.000000,0.000000,0.000000,0.000000,-0.000074,-0.000018,-0.000238,0.000000,0.000000,0.000000,0.000000,0.000000,0.000000,0.000000,0.000000,0.000000,0.000000,0.000000,0.000000,0.000000,0.000000,0.000000,0.000000,0.000000,0.000000,0.000000,0.000000,0.000000,0.000000,0.000000,0.000000,0.000000,0.000000,0.000000
1690312191.436749,0.000531,0.001503,0.001469,0.000001,0.000000,0.000000,0.000001,0.000000,0.000001,1678344328.917568,9.725809,-0.197995,-0.107275,0.000001,0.000000,0.000000,0.000001,0.000000,0.000001,-87.447742,-135.186037,-0.676626,-0.145630,0.703269,160.355427,-0.162426,0.000001,0.000000,0.000000,0.000001,0.000000,0.000001,,,,,,,,,,,,,,,,,,,,,,,,,,,,,,,,,,,,,,,,,,,,,,,,,,,,,,,,,,,
1690312191.443702,0.004674,0.000984,0.000594,0.000001,0.000000,0.000000,0.000001,0.000000,0.000001,1678344328.935068,9.763145,-0.141756,-0.112460,0.000001,0.000000,0.000000,0.000001,0.000000,0.000001,-87.447383,-135.136154,-0.676578,-0.145846,0.703216,160.342833,-0.162659,0.000001,0.000000,0.000000,0.000001,0.000000,0.000001,,,,,,,,,,,,,,,,,,,,,,,,,,,,,,,,,,,,,,,,,,,,,,,,,,,,,,,,,,,
1690312191.452150,0.006316,0.000522,-0.002737,0.000001,0.000000,0.000000,0.000001,0.000000,0.000001,1678344328.942568,9.799006,-0.141864,-0.005993,0.000001,0.000000,0.000000,0.000001,0.000000,0.000001,-87.448280,-135.116090,-0.676563,-0.145946,0.703187,160.339334,-0.162759,0.000001,0.000000,0.000000,0.000001,0.000000,0.000001,,,,,,,,,,,,,,,,,,,,,,,,,,,,,,,,,,,,,,,,,,,,,,,,,,,,,,,,,,,
1690312191.461287,0.006088,0.003680,0.000588,0.000001,0.000000,0.000000,0.000001,0.000000,0.000001,1678344328.952568,9.786512,-0.165359,-0.111678,0.000001,0.000000,0.000000,0.000001,0.000000,0.000001,-87.448289,-135.070800,-0.676539,-0.146068,0.703153,160.315761,-0.162898,0.000001,0.000000,0.000000,0.000001,0.000000,0.000001,,,,,,,,,,,,,,,,,,,,,,,,,,,,,,,,,,,,,,,,,,,,,,,,,,,,,,,,,,,
1690312191.470013,0.002515,0.002342,-0.005798,0.000001,0.000000,0.000000,0.000001,0.000000,0.000001,1678344328.960068,9.758594,-0.131728,-0.071849,0.000001,0.000000,0.000000,0.000001,0.000000,0.000001,-87.449492,-135.044692,-0.676526,-0.146164,0.703123,160.305561,-0.162994,0.000001,0.000000,0.000000,0.000001,0.000000,0.000001,,,,,,,,,,,,,,,,,,,,,,,,,,,,,,,,,,,,,,,,,,,,,,,,,,,,,,,,,,,
1690312191.478516,0.004783,0.002009,-0.000940,0.000001,0.000000,0.000000,0.000001,0.000000,0.000001,1678344328.967568,9.750962,-0.165751,-0.102350,0.000001,0.000000,0.000000,0.000001,0.000000,0.000001,-87.449639,-135.010885,-0.676509,-0.146255,0.703097,160.287731,-0.163095,0.000001,0.000000,0.000000,0.000001,0.000000,0.000001,,,,,,,,,,,,,,,,,,,,,,,,,,,,,,,,,,,,,,,,,,,,,,,,,,,,,,,,,,,
1690312191.486756,0.000807,0.003602,-0.001632,0.000001,0.000000,0.000000,0.000001,0.000000,0.000001,1678344328.975068,9.864594,-0.168713,-0.091630,0.000001,0.000000,0.000000,0.000001,0.000000,0.000001,-87.449282,-134.988036,-0.676489,-0.146341,0.703076,160.280016,-0.163191,0.000001,0.000000,0.000000,0.000001,0.000000,0.000001,,,,,,,,,,,,,,,,,,,,,,,,,,,,,,,,,,,,,,,,,,,,,,,,,,,,,,,,,,,
1690312191.495460,0.000852,-0.000069,-0.000653,0.000001,0.000000,0.000000,0.000001,0.000000,0.000001,1678344328.985068,9.746575,-0.150951,-0.084568,0.000001,0.000000,0.000000,0.000001,0.000000,0.000001,-87.449871,-134.954974,-0.676467,-0.146465,0.703041,160.268094,-0.163322,0.000001,0.000000,0.000000,0.000001,0.000000,0.000001,,,,,,,,,,,,,,,,,,,,,,,,,,,,,,,,,,,,,,,,,,,,,,,,,,,,,,,,,,,
1690312191.504631,0.002619,0.000187,-0.000818,0.000001,0.000000,0.000000,0.000001,0.000000,0.000001,1678344328.992568,9.842253,-0.200085,0.004274,0.000001,0.000000,0.000000,0.000001,0.000000,0.000001,-87.450749,-134.920281,-0.676455,-0.146553,0.703012,160.248646,-0.163417,0.000001,0.000000,0.000000,0.000001,0.000000,0.000001,,,,,,,,,,,,,,,,,,,,,,,,,,,,,,,,,,,,,,,,,,,,,,,,,,,,,,,,,,,
1690312191.513691,0.001562,-0.004154,0.001549,0.000001,0.000000,0.000000,0.000001,0.000000,0.000001,1678344329.000068,9.764336,-0.109591,-0.078135,0.000001,0.000000,0.000000,0.000001,0.000000,0.000001,-87.450518,-134.901525,-0.676435,-0.146643,0.702990,160.245383,-0.163513,0.000001,0.000000,0.000000,0.000001,0.000000,0.000001,,,,,,,,,,,,,,,,,,,,,,,,,,,,,,,,,,,,,,,,,,,,,,,,,,,,,,,,,,,
1690312191.522285,0.000844,0.000276,-0.002497,0.000001,0.000000,0.000000,0.000001,0.000000,0.000001,1678344329.010068,9.756255,-0.114190,-0.153797,0.000001,0.000000,0.000000,0.000001,0.000000,0.000001,-87.450688,-134.868168,-0.676409,-0.146769,0.702957,160.233737,-0.163649,0.000001,0.000000,0.000000,0.000001,0.000000,0.000001,,,,,,,,,,,,,,,,,,,,,,,,,,,,,,,,,,,,,,,,,,,,,,,,,,,,,,,,,,,
1690312191.528977,,,,,,,,,,,,,,,,,,,,,,,,,,,,,,,,,1678315274.487772,0.000200,0.000000,0.000000,0.000000,0.000000,0.000000,0.000200,0.000000,0.000000,0.000000,0.000000,0.000200,0.000000,0.000000,0.000000,0.000000,0.000000,0.000000,0.000000,0.000000,0.000000,0.000000,0.000000,1.000000,0.000000,0.000000,0.000000,0.000000,0.000359,0.000079,0.001226,0.000000,0.000000,0.000000,0.000000,0.000000,0.000000,0.000000,0.000000,0.000000,0.000000,0.000000,0.000000,0.000000,0.000000,0.000000,0.000000,0.000000,0.000000,0.000000,0.000000,0.000000,0.000000,0.000000,0.000000,0.000000,0.000000,0.000000
1690312191.530344,0.003047,-0.000031,0.002220,0.000001,0.000000,0.000000,0.000001,0.000000,0.000001,1678344329.017568,9.780548,-0.181659,-0.127458,0.000001,0.000000,0.000000,0.000001,0.000000,0.000001,-87.449406,-134.865509,-0.676380,-0.146861,0.702943,160.246872,-0.163747,0.000001,0.000000,0.000000,0.000001,0.000000,0.000001,,,,,,,,,,,,,,,,,,,,,,,,,,,,,,,,,,,,,,,,,,,,,,,,,,,,,,,,,,,
1690312191.538888,-0.003244,-0.000052,0.000142,0.000001,0.000000,0.000000,0.000001,0.000000,0.000001,1678344329.025068,9.808350,-0.135590,-0.207474,0.000001,0.000000,0.000000,0.000001,0.000000,0.000001,-87.449651,-134.831409,-0.676366,-0.146942,0.702918,160.227147,-0.163839,0.000001,0.000000,0.000000,0.000001,0.000000,0.000001,,,,,,,,,,,,,,,,,,,,,,,,,,,,,,,,,,,,,,,,,,,,,,,,,,,,,,,,,,,
1690312191.547943,0.004063,0.000153,0.003340,0.000001,0.000000,0.000000,0.000001,0.000000,0.000001,1678344329.035068,9.808968,-0.130235,-0.079746,0.000001,0.000000,0.000000,0.000001,0.000000,0.000001,-87.449520,-134.797671,-0.676341,-0.147061,0.702887,160.214073,-0.163969,0.000001,0.000000,0.000000,0.000001,0.000000,0.000001,,,,,,,,,,,,,,,,,,,,,,,,,,,,,,,,,,,,,,,,,,,,,,,,,,,,,,,,,,,
1690312191.556682,-0.000718,-0.000626,-0.001030,0.000001,0.000000,0.000000,0.000001,0.000000,0.000001,1678344329.042568,9.779048,-0.132917,-0.045625,0.000001,0.000000,0.000000,0.000001,0.000000,0.000001,-87.450458,-134.780579,-0.676327,-0.147150,0.702861,160.211613,-0.164056,0.000001,0.000000,0.000000,0.000001,0.000000,0.000001,,,,,,,,,,,,,,,,,,,,,,,,,,,,,,,,,,,,,,,,,,,,,,,,,,,,,,,,,,,
1690312191.566084,0.004181,-0.002547,0.000333,0.000001,0.000000,0.000000,0.000001,0.000000,0.000001,1678344329.050068,9.799790,-0.145873,-0.077642,0.000001,0.000000,0.000000,0.000001,0.000000,0.000001,-87.450955,-134.766899,-0.676309,-0.147246,0.702836,160.213890,-0.164152,0.000001,0.000000,0.000000,0.000001,0.000000,0.000001,,,,,,,,,,,,,,,,,,,,,,,,,,,,,,,,,,,,,,,,,,,,,,,,,,,,,,,,,,,
1690312191.573797,0.006060,0.001106,-0.000292,0.000001,0.000000,0.000000,0.000001,0.000000,0.000001,1678344329.060068,9.707904,-0.093692,-0.009413,0.000001,0.000000,0.000000,0.000001,0.000000,0.000001,-87.451214,-134.733052,-0.676285,-0.147370,0.702802,160.201411,-0.164285,0.000001,0.000000,0.000000,0.000001,0.000000,0.000001,,,,,,,,,,,,,,,,,,,,,,,,,,,,,,,,,,,,,,,,,,,,,,,,,,,,,,,,,,,
1690312191.582574,0.001381,0.000101,0.001170,0.000001,0.000000,0.000000,0.000001,0.000000,0.000001,1678344329.067568,9.827709,-0.160389,-0.116011,0.000001,0.000000,0.000000,0.000001,0.000000,0.000001,-87.451275,-134.707544,-0.676268,-0.147456,0.702779,160.190844,-0.164379,0.000001,0.000000,0.000000,0.000001,0.000000,0.000001,,,,,,,,,,,,,,,,,,,,,,,,,,,,,,,,,,,,,,,,,,,,,,,,,,,,,,,,,,,
1690312191.592019,0.003608,0.001069,-0.001705,0.000001,0.000000,0.000000,0.000001,0.000000,0.000001,1678344329.075068,9.745121,-0.171788,-0.108810,0.000001,0.000000,0.000000,0.000001,0.000000,0.000001,-87.451339,-134.699400,-0.676246,-0.147555,0.702756,160.199076,-0.164477,0.000001,0.000000,0.000000,0.000001,0.000000,0.000001,,,,,,,,,,,,,,,,,,,,,,,,,,,,,,,,,,,,,,,,,,,,,,,,,,,,,,,,,,,
1690312191.603525,0.002917,0.001075,-0.000478,0.000001,0.000000,0.000000,0.000001,0.000000,0.000001,1678344329.082568,9.843922,-0.161447,-0.174995,0.000001,0.000000,0.000000,0.000001,0.000000,0.000001,-87.451986,-134.668277,-0.676231,-0.147647,0.702728,160.183731,-0.164575,0.000001,0.000000,0.000000,0.000001,0.000000,0.000001,,,,,,,,,,,,,,,,,,,,,,,,,,,,,,,,,,,,,,,,,,,,,,,,,,,,,,,,,,,
1690312191.608899,0.004361,0.004265,0.002771,0.000001,0.000000,0.000000,0.000001,0.000000,0.000001,1678344329.092568,9.807444,-0.167582,-0.140489,0.000001,0.000000,0.000000,0.000001,0.000000,0.000001,-87.451812,-134.609437,-0.676210,-0.147758,0.702694,160.145275,-0.164710,0.000001,0.000000,0.000000,0.000001,0.000000,0.000001,,,,,,,,,,,,,,,,,,,,,,,,,,,,,,,,,,,,,,,,,,,,,,,,,,,,,,,,,,,
1690312191.618082,-0.001486,0.003087,-0.002058,0.000001,0.000000,0.000000,0.000001,0.000000,0.000001,1678344329.100068,9.730174,-0.147555,-0.046226,0.000001,0.000000,0.000000,0.000001,0.000000,0.000001,-87.453241,-134.574863,-0.676201,-0.147845,0.702663,160.125477,-0.164800,0.000001,0.000000,0.000000,0.000001,0.000000,0.000001,,,,,,,,,,,,,,,,,,,,,,,,,,,,,,,,,,,,,,,,,,,,,,,,,,,,,,,,,,,
1690312191.629634,0.004654,0.004666,-0.001322,0.000001,0.000000,0.000000,0.000001,0.000000,0.000001,1678344329.107568,9.841825,-0.123733,-0.189665,0.000001,0.000000,0.000000,0.000001,0.000000,0.000001,-87.454500,-134.534642,-0.676190,-0.147939,0.702630,160.101420,-0.164901,0.000001,0.000000,0.000000,0.000001,0.000000,0.000001,,,,,,,,,,,,,,,,,,,,,,,,,,,,,,,,,,,,,,,,,,,,,,,,,,,,,,,,,,,
1690312191.629683,,,,,,,,,,,,,,,,,,,,,,,,,,,,,,,,,1678315274.586647,0.000200,0.000000,0.000000,0.000000,0.000000,0.000000,0.000200,0.000000,0.000000,0.000000,0.000000,0.000200,0.000000,0.000000,0.000000,0.000000,0.000000,0.000000,0.000000,0.000000,0.000000,0.000000,0.000000,1.000000,0.000000,0.000000,0.000000,0.000000,0.000569,0.000088,0.001351,0.000000,0.000000,0.000000,0.000000,0.000000,0.000000,0.000000,0.000000,0.000000,0.000000,0.000000,0.000000,0.000000,0.000000,0.000000,0.000000,0.000000,0.000000,0.000000,0.000000,0.000000,0.000000,0.000000,0.000000,0.000000,0.000000,0.000000
1690312191.634446,0.005398,0.001260,-0.004187,0.000001,0.000000,0.000000,0.000001,0.000000,0.000001,1678344329.117568,9.799578,-0.125140,-0.097218,0.000001,0.000000,0.000000,0.000001,0.000000,0.000001,-87.455811,-134.507081,-0.676170,-0.148071,0.702591,160.095698,-0.165032,0.000001,0.000000,0.000000,0.000001,0.000000,0.000001,,,,,,,,,,,,,,,,,,,,,,,,,,,,,,,,,,,,,,,,,,,,,,,,,,,,,,,,,,,
1690312191.643475,0.005312,-0.000806,-0.001562,0.000001,0.000000,0.000000,0.000001,0.000000,0.000001,1678344329.125068,9.837129,-0.216662,-0.112694,0.000001,0.000000,0.000000,0.000001,0.000000,0.000001,-87.455263,-134.494124,-0.676146,-0.148162,0.702571,160.098440,-0.165129,0.000001,0.000000,0.000000,0.000001,0.000000,0.000001,,,,,,,,,,,,,,,,,,,,,,,,,,,,,,,,,,,,,,,,,,,,,,,,,,,,,,,,,,,
1690312191.653456,0.006000,0.002628,-0.000386,0.000001,0.000000,0.000000,0.000001,0.000000,0.000001,1678344329.132568,9.760167,-0.120918,-0.127846,0.000001,0.000000,0.000000,0.000001,0.000000,0.000001,-87.455418,-134.459599,-0.676128,-0.148257,0.702544,160.080606,-0.165235,0.000001,0.000000,0.000000,0.000001,0.000000,0.000001,,,,,,,,,,,,,,,,,,,,,,,,,,,,,,,,,,,,,,,,,,,,,,,,,,,,,,,,,,,
1690312191.663998,0.002307,0.001105,-0.002791,0.000001,0.000000,0.000000,0.000001,0.000000,0.000001,1678344329.150068,9.817338,-0.097707,-0.053426,0.000001,0.000000,0.000000,0.000001,0.000000,0.000001,-87.455562,-134.405292,-0.676083,-0.148475,0.702486,160.063807,-0.165468,0.000001,0.000000,0.000000,0.000001,0.000000,0.000001,,,,,,,,,,,,,,,,,,,,,,,,,,,,,,,,,,,,,,,,,,,,,,,,,,,,,,,,,,,
1690312191.669713,0.006836,0.000175,0.002778,0.000001,0.000000,0.000000,0.000001,0.000000,0.000001,1678344329.157568,9.713672,-0.144527,-0.126307,0.000001,0.000000,0.000000,0.000001,0.000000,0.000001,-87.454709,-134.375081,-0.676059,-0.148566,0.702465,160.050014,-0.165575,0.000001,0.000000,0.000000,0.000001,0.000000,0.000001,,,,,,,,,,,,,,,,,,,,,,,,,,,,,,,,,,,,,,,,,,,,,,,,,,,,,,,,,,,
1690312191.679521,0.001552,0.000248,0.001500,0.000001,0.000000,0.000000,0.000001,0.000000,0.000001,1678344329.165068,9.861159,-0.165810,-0.044387,0.000001,0.000000,0.000000,0.000001,0.000000,0.000001,-87.453523,-134.366734,-0.676031,-0.148657,0.702449,160.057430,-0.165674,0.000001,0.000000,0.000000,0.000001,0.000000,0.000001,,,,,,,,,,,,,,,,,,,,,,,,,,,,,,,,,,,,,,,,,,,,,,,,,,,,,,,,,,,
