__time,/mti630/imu/angular_velocity/x,/mti630/imu/angular_velocity/y,/mti630/imu/angular_velocity/z,/mti630/imu/angular_velocity_covariance[0;0],/mti630/imu/angular_velocity_covariance[0;1],/mti630/imu/angular_velocity_covariance[0;2],/mti630/imu/angular_velocity_covariance[1;1],/mti630/imu/angular_velocity_covariance[1;2],/mti630/imu/angular_velocity_covariance[2;2],/mti630/imu/header/stamp,/mti630/imu/linear_acceleration/x,/mti630/imu/linear_acceleration/y,/mti630/imu/linear_acceleration/z,/mti630/imu/linear_acceleration_covariance[0;0],/mti630/imu/linear_acceleration_covariance[0;1],/mti630/imu/linear_acceleration_covariance[0;2],/mti630/imu/linear_acceleration_covariance[1;1],/mti630/imu/linear_acceleration_covariance[1;2],/mti630/imu/linear_acceleration_covariance[2;2],/mti630/imu/orientation/pitch_deg,/mti630/imu/orientation/roll_deg,/mti630/imu/orientation/w,/mti630/imu/orientation/x,/mti630/imu/orientation/y,/mti630/imu/orientation/yaw_deg,/mti630/imu/orientation/z,/mti630/imu/orientation_covariance[0;0],/mti630/imu/orientation_covariance[0;1],/mti630/imu/orientation_covariance[0;2],/mti630/imu/orientation_covariance[1;1],/mti630/imu/orientation_covariance[1;2],/mti630/imu/orientation_covariance[2;2],/triangulation_3D_pose/header/stamp,/triangulation_3D_pose/pose/covariance[0;0],/triangulation_3D_pose/pose/covariance[0;1],/triangulation_3D_pose/pose/covariance[0;2],/triangulation_3D_pose/pose/covariance[0;3],/triangulation_3D_pose/pose/covariance[0;4],/triangulation_3D_pose/pose/covariance[0;5],/triangulation_3D_pose/pose/covariance[1;1],/triangulation_3D_pose/pose/covariance[1;2],/triangulation_3D_pose/pose/covariance[1;3],/triangulation_3D_pose/pose/covariance[1;4],/triangulation_3D_pose/pose/covariance[1;5],/triangulation_3D_pose/pose/covariance[2;2],/triangulation_3D_pose/pose/covariance[2;3],/triangulation_3D_pose/pose/covariance[2;4],/triangulation_3D_pose/pose/covariance[2;5],/triangulation_3D_pose/pose/covariance[3;3],/triangulation_3D_pose/pose/covariance[3;4],/triangulation_3D_pose/pose/covariance[3;5],/triangulation_3D_pose/pose/covariance[4;4],/triangulation_3D_pose/pose/covariance[4;5],/triangulation_3D_pose/pose/covariance[5;5],/triangulation_3D_pose/pose/pose/orientation/pitch_deg,/triangulation_3D_pose/pose/pose/orientation/roll_deg,/triangulation_3D_pose/pose/pose/orientation/w,/triangulation_3D_pose/pose/pose/orientation/x,/triangulation_3D_pose/pose/pose/orientation/y,/triangulation_3D_pose/pose/pose/orientation/yaw_deg,/triangulation_3D_pose/pose/pose/orientation/z,/triangulation_3D_pose/pose/pose/position/x,/triangulation_3D_pose/pose/pose/position/y,/triangulation_3D_pose/pose/pose/position/z,/triangulation_3D_pose/twist/covariance[0;0],/triangulation_3D_pose/twist/covariance[0;1],/triangulation_3D_pose/twist/covariance[0;2],/triangulation_3D_pose/twist/covariance[0;3],/triangulation_3D_pose/twist/covariance[0;4],/triangulation_3D_pose/twist/covariance[0;5],/triangulation_3D_pose/twist/covariance[1;1],/triangulation_3D_pose/twist/covariance[1;2],/triangulation_3D_pose/twist/covariance[1;3],/triangulation_3D_pose/twist/covariance[1;4],/triangulation_3D_pose/twist/covariance[1;5],/triangulation_3D_pose/twist/covariance[2;2],/triangulation_3D_pose/twist/covariance[2;3],/triangulation_3D_pose/twist/covariance[2;4],/triangulation_3D_pose/twist/covariance[2;5],/triangulation_3D_pose/twist/covariance[3;3],/triangulation_3D_pose/twist/covariance[3;4],/triangulation_3D_pose/twist/covariance[3;5],/triangulation_3D_pose/twist/covariance[4;4],/triangulation_3D_pose/twist/covariance[4;5],/triangulation_3D_pose/twist/covariance[5;5],/triangulation_3D_pose/twist/twist/angular/x,/triangulation_3D_pose/twist/twist/angular/y,/triangulation_3D_pose/twist/twist/angular/z,/triangulation_3D_pose/twist/twist/linear/x,/triangulation_3D_pose/twist/twist/linear/y,/triangulation_3D_pose/twist/twist/linear/z
1690309417.910126,0.007784,0.006568,-0.003736,0.000001,0.000000,0.000000,0.000001,0.000000,0.000001,1678344350.315068,10.157375,-0.131683,-0.181410,0.000001,0.000000,0.000000,0.000001,0.000000,0.000001,-86.736766,-105.850190,-0.560101,-0.397330,0.591525,176.744074,-0.422509,0.000001,0.000000,0.000000,0.000001,0.000000,0.000001,,,,,,,,,,,,,,,,,,,,,,,,,,,,,,,,,,,,,,,,,,,,,,,,,,,,,,,,,,,
1690309417.919353,0.003637,0.004605,-0.001737,0.000001,0.000000,0.000000,0.000001,0.000000,0.000001,1678344350.322568,9.662008,-0.158506,0.002092,0.000001,0.000000,0.000000,0.000001,0.000000,0.000001,-86.738765,-105.784222,-0.560069,-0.397399,0.591449,176.693372,-0.422594,0.000001,0.000000,0.000000,0.000001,0.000000,0.000001,,,,,,,,,,,,,,,,,,,,,,,,,,,,,,,,,,,,,,,,,,,,,,,,,,,,,,,,,,,
1690309417.927844,-0.001580,0.002953,-0.008532,0.000001,0.000000,0.000000,0.000001,0.000000,0.000001,1678344350.330068,9.583296,-0.501475,-0.346520,0.000001,0.000000,0.000000,0.000001,0.000000,0.000001,-86.739672,-105.781367,-0.560018,-0.397481,0.591391,176.705808,-0.422666,0.000001,0.000000,0.000000,0.000001,0.000000,0.000001,,,,,,,,,,,,,,,,,,,,,,,,,,,,,,,,,,,,,,,,,,,,,,,,,,,,,,,,,,,
1690309417.936086,0.004666,0.014632,0.005931,0.000001,0.000000,0.000000,0.000001,0.000000,0.000001,1678344350.337568,9.862659,-0.363855,-0.100534,0.000001,0.000000,0.000000,0.000001,0.000000,0.000001,-86.739392,-105.732837,-0.559970,-0.397546,0.591328,176.672725,-0.422756,0.000001,0.000000,0.000000,0.000001,0.000000,0.000001,,,,,,,,,,,,,,,,,,,,,,,,,,,,,,,,,,,,,,,,,,,,,,,,,,,,,,,,,,,
1690309417.945054,-0.000438,0.012868,-0.001575,0.000001,0.000000,0.000000,0.000001,0.000000,0.000001,1678344350.347568,9.274249,-0.219213,-0.078309,0.000001,0.000000,0.000000,0.000001,0.000000,0.000001,-86.741151,-105.597969,-0.559931,-0.397624,0.591217,176.558709,-0.422888,0.000001,0.000000,0.000000,0.000001,0.000000,0.000001,,,,,,,,,,,,,,,,,,,,,,,,,,,,,,,,,,,,,,,,,,,,,,,,,,,,,,,,,,,
1690309417.953895,0.004838,-0.002855,0.007883,0.000001,0.000000,0.000000,0.000001,0.000000,0.000001,1678344350.355068,10.266711,0.219877,-0.371627,0.000001,0.000000,0.000000,0.000001,0.000000,0.000001,-86.738459,-105.584527,-0.559860,-0.397695,0.591170,176.561783,-0.422982,0.000001,0.000000,0.000000,0.000001,0.000000,0.000001,,,,,,,,,,,,,,,,,,,,,,,,,,,,,,,,,,,,,,,,,,,,,,,,,,,,,,,,,,,
1690309417.962337,0.000113,0.008456,0.003283,0.000001,0.000000,0.000000,0.000001,0.000000,0.000001,1678344350.365068,9.953869,0.120415,-0.516633,0.000001,0.000000,0.000000,0.000001,0.000000,0.000001,-86.739549,-105.472597,-0.559810,-0.397781,0.591064,176.471674,-0.423115,0.000001,0.000000,0.000000,0.000001,0.000000,0.000001,,,,,,,,,,,,,,,,,,,,,,,,,,,,,,,,,,,,,,,,,,,,,,,,,,,,,,,,,,,
1690309417.972137,0.000291,-0.003064,-0.008275,0.000001,0.000000,0.000000,0.000001,0.000000,0.000001,1678344350.372568,9.667018,-0.254718,-0.419691,0.000001,0.000000,0.000000,0.000001,0.000000,0.000001,-86.742237,-105.432202,-0.559769,-0.397868,0.590984,176.448214,-0.423199,0.000001,0.000000,0.000000,0.000001,0.000000,0.000001,,,,,,,,,,,,,,,,,,,,,,,,,,,,,,,,,,,,,,,,,,,,,,,,,,,,,,,,,,,
1690309417.979761,0.001965,0.014558,-0.004289,0.000001,0.000000,0.000000,0.000001,0.000000,0.000001,1678344350.397568,9.179597,-0.791904,0.113015,0.000001,0.000000,0.000000,0.000001,0.000000,0.000001,-86.745801,-105.492852,-0.559568,-0.398185,0.590788,176.564484,-0.423441,0.000001,0.000000,0.000000,0.000001,0.000000,0.000001,,,,,,,,,,,,,,,,,,,,,,,,,,,,,,,,,,,,,,,,,,,,,,,,,,,,,,,,,,,
1690309417.988797,0.003210,0.004544,0.005376,0.000001,0.000000,0.000000,0.000001,0.000000,0.000001,1678344350.405068,9.651117,0.263894,-0.099790,0.000001,0.000000,0.000000,0.000001,0.000000,0.000001,-86.742667,-105.425356,-0.559505,-0.398242,0.590729,176.513897,-0.423553,0.000001,0.000000,0.000000,0.000001,0.000000,0.000001,,,,,,,,,,,,,,,,,,,,,,,,,,,,,,,,,,,,,,,,,,,,,,,,,,,,,,,,,,,
1690309417.997443,0.009035,0.010461,0.000470,0.000001,0.000000,0.000000,0.000001,0.000000,0.000001,1678344350.412568,10.586918,-0.391101,-0.473285,0.000001,0.000000,0.000000,0.000001,0.000000,0.000001,-86.744120,-105.392956,-0.559455,-0.398329,0.590654,176.498946,-0.423642,0.000001,0.000000,0.000000,0.000001,0.000000,0.000001,,,,,,,,,,,,,,,,,,,,,,,,,,,,,,,,,,,,,,,,,,,,,,,,,,,,,,,,,,,
1690309418.006296,-0.007524,-0.026493,0.002689,0.000001,0.000000,0.000000,0.000001,0.000000,0.000001,1678344350.422568,9.279624,0.006950,-0.130839,0.000001,0.000000,0.000000,0.000001,0.000000,0.000001,-86.745169,-105.398006,-0.559391,-0.398429,0.590586,176.522405,-0.423727,0.000001,0.000000,0.000000,0.000001,0.000000,0.000001,,,,,,,,,,,,,,,,,,,,,,,,,,,,,,,,,,,,,,,,,,,,,,,,,,,,,,,,,,,
1690309418.008078,,,,,,,,,,,,,,,,,,,,,,,,,,,,,,,,,1678315295.890614,0.000200,0.000000,0.000000,0.000000,0.000000,0.000000,0.000200,0.000000,0.000000,0.000000,0.000000,0.000200,0.000000,0.000000,0.000000,0.000000,0.000000,0.000000,0.000000,0.000000,0.000000,0.000000,0.000000,1.000000,0.000000,0.000000,0.000000,0.000000,-0.006101,2.003673,0.029841,0.000000,0.000000,0.000000,0.000000,0.000000,0.000000,0.000000,0.000000,0.000000,0.000000,0.000000,0.000000,0.000000,0.000000,0.000000,0.000000,0.000000,0.000000,0.000000,0.000000,0.000000,0.000000,0.000000,0.000000,0.000000,0.000000,0.000000
1690309418.014602,0.000186,0.000516,0.001121,0.000001,0.000000,0.000000,0.000001,0.000000,0.000001,1678344350.430068,10.836409,-0.465924,-0.168500,0.000001,0.000000,0.000000,0.000001,0.000000,0.000001,-86.744615,-105.418230,-0.559331,-0.398505,0.590544,176.556722,-0.423792,0.000001,0.000000,0.000000,0.000001,0.000000,0.000001,,,,,,,,,,,,,,,,,,,,,,,,,,,,,,,,,,,,,,,,,,,,,,,,,,,,,,,,,,,
1690309418.023541,0.004535,0.007773,0.007167,0.000001,0.000000,0.000000,0.000001,0.000000,0.000001,1678344350.437568,9.467323,-0.149974,-0.500970,0.000001,0.000000,0.000000,0.000001,0.000000,0.000001,-86.744812,-105.330096,-0.559291,-0.398566,0.590467,176.484983,-0.423895,0.000001,0.000000,0.000000,0.000001,0.000000,0.000001,,,,,,,,,,,,,,,,,,,,,,,,,,,,,,,,,,,,,,,,,,,,,,,,,,,,,,,,,,,
1690309418.032417,0.006635,0.023479,-0.005777,0.000001,0.000000,0.000000,0.000001,0.000000,0.000001,1678344350.445068,9.962509,-0.602463,-0.225879,0.000001,0.000000,0.000000,0.000001,0.000000,0.000001,-86.744253,-105.206020,-0.559254,-0.398616,0.590384,176.377538,-0.424012,0.000001,0.000000,0.000000,0.000001,0.000000,0.000001,,,,,,,,,,,,,,,,,,,,,,,,,,,,,,,,,,,,,,,,,,,,,,,,,,,,,,,,,,,
1690309418.040904,0.006375,-0.002763,-0.004746,0.000001,0.000000,0.000000,0.000001,0.000000,0.000001,1678344350.455068,9.017327,-0.624869,-0.560765,0.000001,0.000000,0.000000,0.000001,0.000000,0.000001,-86.746687,-105.128884,-0.559209,-0.398709,0.590286,176.320565,-0.424122,0.000001,0.000000,0.000000,0.000001,0.000000,0.000001,,,,,,,,,,,,,,,,,,,,,,,,,,,,,,,,,,,,,,,,,,,,,,,,,,,,,,,,,,,
1690309418.049945,-0.000559,0.003105,0.005349,0.000001,0.000000,0.000000,0.000001,0.000000,0.000001,1678344350.462568,9.833164,-0.172341,0.171594,0.000001,0.000000,0.000000,0.000001,0.000000,0.000001,-86.743426,-105.124775,-0.559139,-0.398771,0.590248,176.331230,-0.424208,0.000001,0.000000,0.000000,0.000001,0.000000,0.000001,,,,,,,,,,,,,,,,,,,,,,,,,,,,,,,,,,,,,,,,,,,,,,,,,,,,,,,,,,,
1690309418.058378,0.005915,0.010473,-0.003852,0.000001,0.000000,0.000000,0.000001,0.000000,0.000001,1678344350.472568,9.816678,-0.846292,-0.016372,0.000001,0.000000,0.000000,0.000001,0.000000,0.000001,-86.742779,-105.027557,-0.559074,-0.398858,0.590151,176.256625,-0.424347,0.000001,0.000000,0.000000,0.000001,0.000000,0.000001,,,,,,,,,,,,,,,,,,,,,,,,,,,,,,,,,,,,,,,,,,,,,,,,,,,,,,,,,,,
1690309418.066769,0.002184,0.005982,0.004088,0.000001,0.000000,0.000000,0.000001,0.000000,0.000001,1678344350.480068,9.991434,0.143187,-0.137967,0.000001,0.000000,0.000000,0.000001,0.000000,0.000001,-86.744275,-104.961547,-0.559032,-0.398935,0.590070,176.207826,-0.424443,0.000001,0.000000,0.000000,0.000001,0.000000,0.000001,,,,,,,,,,,,,,,,,,,,,,,,,,,,,,,,,,,,,,,,,,,,,,,,,,,,,,,,,,,
1690309418.075371,0.004774,-0.004156,0.000010,0.000001,0.000000,0.000000,0.000001,0.000000,0.000001,1678344350.487568,9.500621,-0.182417,-0.205828,0.000001,0.000000,0.000000,0.000001,0.000000,0.000001,-86.748137,-104.924837,-0.558998,-0.399025,0.589986,176.187578,-0.424519,0.000001,0.000000,0.000000,0.000001,0.000000,0.000001,,,,,,,,,,,,,,,,,,,,,,,,,,,,,,,,,,,,,,,,,,,,,,,,,,,,,,,,,,,
1690309418.084179,0.003531,-0.007054,0.001220,0.000001,0.000000,0.000000,0.000001,0.000000,0.000001,1678344350.495068,9.412069,-0.011046,-0.251793,0.000001,0.000000,0.000000,0.000001,0.000000,0.000001,-86.746794,-104.926681,-0.558932,-0.399102,0.589937,176.205368,-0.424601,0.000001,0.000000,0.000000,0.000001,0.000000,0.000001,,,,,,,,,,,,,,,,,,,,,,,,,,,,,,,,,,,,,,,,,,,,,,,,,,,,,,,,,,,
1690309418.109129,0.007101,0.002176,-0.008155,0.000001,0.000000,0.000000,0.000001,0.000000,0.000001,1678344350.512568,9.420957,-0.561527,-0.297962,0.000001,0.000000,0.000000,0.000001,0.000000,0.000001,-86.746605,-104.923913,-0.558784,-0.399306,0.589799,176.242359,-0.424797,0.000001,0.000000,0.000000,0.000001,0.000000,0.000001,,,,,,,,,,,,,,,,,,,,,,,,,,,,,,,,,,,,,,,,,,,,,,,,,,,,,,,,,,,
1690309418.109389,,,,,,,,,,,,,,,,,,,,,,,,,,,,,,,,,1678315295.990797,0.000200,0.000000,0.000000,0.000000,0.000000,0.000000,0.000200,0.000000,0.000000,0.000000,0.000000,0.000200,0.000000,0.000000,0.000000,0.000000,0.000000,0.000000,0.000000,0.000000,0.000000,0.000000,0.000000,1.000000,0.000000,0.000000,0.000000,0.000000,-0.006529,2.021314,0.029880,0.000000,0.000000,0.000000,0.000000,0.000000,0.000000,0.000000,0.000000,0.000000,0.000000,0.000000,0.000000,0.000000,0.000000,0.000000,0.000000,0.000000,0.000000,0.000000,0.000000,0.000000,0.000000,0.000000,0.000000,0.000000,0.000000,0.000000
1690309418.110805,-0.000452,-0.006235,-0.000994,0.000001,0.000000,0.000000,0.000001,0.000000,0.000001,1678344350.520068,9.918838,-0.513267,0.207484,0.000001,0.000000,0.000000,0.000001,0.000000,0.000001,-86.747155,-104.977814,-0.558720,-0.399398,0.589757,176.311014,-0.424852,0.000001,0.000000,0.000000,0.000001,0.000000,0.000001,,,,,,,,,,,,,,,,,,,,,,,,,,,,,,,,,,,,,,,,,,,,,,,,,,,,,,,,,,,
1690309418.119391,0.001163,0.005034,0.002763,0.000001,0.000000,0.000000,0.000001,0.000000,0.000001,1678344350.527568,10.217788,-0.148630,-0.185265,0.000001,0.000000,0.000000,0.000001,0.000000,0.000001,-86.746512,-104.962990,-0.558648,-0.399493,0.589688,176.315923,-0.424954,0.000001,0.000000,0.000000,0.000001,0.000000,0.000001,,,,,,,,,,,,,,,,,,,,,,,,,,,,,,,,,,,,,,,,,,,,,,,,,,,,,,,,,,,
1690309418.128691,0.005982,0.002221,0.000515,0.000001,0.000000,0.000000,0.000001,0.000000,0.000001,1678344350.537568,9.730579,-0.134292,-0.151745,0.000001,0.000000,0.000000,0.000001,0.000000,0.000001,-86.746217,-104.899803,-0.558565,-0.399606,0.589586,176.278247,-0.425097,0.000001,0.000000,0.000000,0.000001,0.000000,0.000001,,,,,,,,,,,,,,,,,,,,,,,,,,,,,,,,,,,,,,,,,,,,,,,,,,,,,,,,,,,
1690309418.136662,0.005051,0.002197,0.000636,0.000001,0.000000,0.000000,0.000001,0.000000,0.000001,1678344350.545068,10.277107,0.270083,-0.435895,0.000001,0.000000,0.000000,0.000001,0.000000,0.000001,-86.748343,-104.809698,-0.558532,-0.399680,0.589496,176.205467,-0.425198,0.000001,0.000000,0.000000,0.000001,0.000000,0.000001,,,,,,,,,,,,,,,,,,,,,,,,,,,,,,,,,,,,,,,,,,,,,,,,,,,,,,,,,,,
1690309418.145096,-0.003478,-0.000620,0.008135,0.000001,0.000000,0.000000,0.000001,0.000000,0.000001,1678344350.555068,9.406228,-0.244116,-0.178115,0.000001,0.000000,0.000000,0.000001,0.000000,0.000001,-86.747944,-104.720854,-0.558477,-0.399754,0.589410,176.136085,-0.425318,0.000001,0.000000,0.000000,0.000001,0.000000,0.000001,,,,,,,,,,,,,,,,,,,,,,,,,,,,,,,,,,,,,,,,,,,,,,,,,,,,,,,,,,,
1690309418.153944,0.004836,0.009287,-0.002719,0.000001,0.000000,0.000000,0.000001,0.000000,0.000001,1678344350.570068,10.349453,-0.591402,-0.319782,0.000001,0.000000,0.000000,0.000001,0.000000,0.000001,-86.748397,-104.774543,-0.558336,-0.399953,0.589296,176.225267,-0.425475,0.000001,0.000000,0.000000,0.000001,0.000000,0.000001,,,,,,,,,,,,,,,,,,,,,,,,,,,,,,,,,,,,,,,,,,,,,,,,,,,,,,,,,,,
1690309418.162594,0.003222,0.020566,0.000637,0.000001,0.000000,0.000000,0.000001,0.000000,0.000001,1678344350.577568,9.805700,-0.768030,0.487623,0.000001,0.000000,0.000000,0.000001,0.000000,0.000001,-86.747394,-104.679972,-0.558296,-0.400001,0.589227,176.145817,-0.425578,0.000001,0.000000,0.000000,0.000001,0.000000,0.000001,,,,,,,,,,,,,,,,,,,,,,,,,,,,,,,,,,,,,,,,,,,,,,,,,,,,,,,,,,,
1690309418.171196,0.001100,0.000798,0.012075,0.000001,0.000000,0.000000,0.000001,0.000000,0.000001,1678344350.585068,9.532860,0.077461,0.180526,0.000001,0.000000,0.000000,0.000001,0.000000,0.000001,-86.746579,-104.528662,-0.558261,-0.400046,0.589136,176.011851,-0.425706,0.000001,0.000000,0.000000,0.000001,0.000000,0.000001,,,,,,,,,,,,,,,,,,,,,,,,,,,,,,,,,,,,,,,,,,,,,,,,,,,,,,,,,,,
1690309418.179995,-0.005069,-0.007704,0.008520,0.000001,0.000000,0.000000,0.000001,0.000000,0.000001,1678344350.595068,9.670069,-0.040977,0.119499,0.000001,0.000000,0.000000,0.000001,0.000000,0.000001,-86.745876,-104.541970,-0.558180,-0.400151,0.589072,176.045421,-0.425804,0.000001,0.000000,0.000000,0.000001,0.000000,0.000001,,,,,,,,,,,,,,,,,,,,,,,,,,,,,,,,,,,,,,,,,,,,,,,,,,,,,,,,,,,
1690309418.188691,-0.000395,-0.006564,0.007767,0.000001,0.000000,0.000000,0.000001,0.000000,0.000001,1678344350.602568,9.574813,0.015216,-0.333967,0.000001,0.000000,0.000000,0.000001,0.000000,0.000001,-86.744419,-104.541923,-0.558109,-0.400233,0.589019,176.062511,-0.425893,0.000001,0.000000,0.000000,0.000001,0.000000,0.000001,,,,,,,,,,,,,,,,,,,,,,,,,,,,,,,,,,,,,,,,,,,,,,,,,,,,,,,,,,,
1690309418.197449,0.008831,0.002789,0.000194,0.000001,0.000000,0.000000,0.000001,0.000000,0.000001,1678344350.610068,9.778123,-0.132652,-0.678444,0.000001,0.000000,0.000000,0.000001,0.000000,0.000001,-86.743573,-104.561351,-0.558038,-0.400322,0.588968,176.098807,-0.425973,0.000001,0.000000,0.000000,0.000001,0.000000,0.000001,,,,,,,,,,,,,,,,,,,,,,,,,,,,,,,,,,,,,,,,,,,,,,,,,,,,,,,,,,,
1690309418.206570,0.004364,0.003778,0.004636,0.000001,0.000000,0.000000,0.000001,0.000000,0.000001,1678344350.620068,9.890802,-0.051669,-0.730945,0.000001,0.000000,0.000000,0.000001,0.000000,0.000001,-86.741845,-104.544760,-0.557944,-0.400433,0.588889,176.105988,-0.426100,0.000001,0.000000,0.000000,0.000001,0.000000,0.000001,,,,,,,,,,,,,,,,,,,,,,,,,,,,,,,,,,,,,,,,,,,,,,,,,,,,,,,,,,,
1690309418.209222,,,,,,,,,,,,,,,,,,,,,,,,,,,,,,,,,1678315296.089605,0.000200,0.000000,0.000000,0.000000,0.000000,0.000000,0.000200,0.000000,0.000000,0.000000,0.000000,0.000200,0.000000,0.000000,0.000000,0.000000,0.000000,0.000000,0.000000,0.000000,0.000000,0.000000,0.000000,1.000000,0.000000,0.000000,0.000000,0.000000,-0.006346,2.038895,0.030374,0.000000,0.000000,0.000000,0.000000,0.000000,0.000000,0.000000,0.000000,0.000000,0.000000,0.000000,0.000000,0.000000,0.000000,0.000000,0.000000,0.000000,0.000000,0.000000,0.000000,0.000000,0.000000,0.000000,0.000000,0.000000,0.000000,0.000000
1690309418.214662,-0.001463,0.003687,-0.006281,0.000001,0.000000,0.000000,0.000001,0.000000,0.000001,1678344350.627568,9.911285,-0.345287,-0.557213,0.000001,0.000000,0.000000,0.000001,0.000000,0.000001,-86.740536,-104.544084,-0.557885,-0.400500,0.588845,176.119561,-0.426175,0.000001,0.000000,0.000000,0.000001,0.000000,0.000001,,,,,,,,,,,,,,,,,,,,,,,,,,,,,,,,,,,,,,,,,,,,,,,,,,,,,,,,,,,
1690309418.223489,0.005128,0.010588,0.003386,0.000001,0.000000,0.000000,0.000001,0.000000,0.000001,1678344350.635068,9.646252,-0.269045,-0.235466,0.000001,0.000000,0.000000,0.000001,0.000000,0.000001,-86.739984,-104.473049,-0.557840,-0.400559,0.588777,176.064114,-0.426272,0.000001,0.000000,0.000000,0.000001,0.000000,0.000001,,,,,,,,,,,,,,,,,,,,,,,,,,,,,,,,,,,,,,,,,,,,,,,,,,,,,,,,,,,
1690309418.232464,0.007365,-0.002292,-0.004214,0.000001,0.000000,0.000000,0.000001,0.000000,0.000001,1678344350.645068,9.609678,-0.247355,-0.060657,0.000001,0.000000,0.000000,0.000001,0.000000,0.000001,-86.742050,-104.402162,-0.557780,-0.400668,0.588671,176.016476,-0.426396,0.000001,0.000000,0.000000,0.000001,0.000000,0.000001,,,,,,,,,,,,,,,,,,,,,,,,,,,,,,,,,,,,,,,,,,,,,,,,,,,,,,,,,,,
1690309418.241261,0.003078,-0.008398,0.002170,0.000001,0.000000,0.000000,0.000001,0.000000,0.000001,1678344350.652568,9.526770,-0.241048,-0.300844,0.000001,0.000000,0.000000,0.000001,0.000000,0.000001,-86.742099,-104.412915,-0.557707,-0.400769,0.588606,176.046293,-0.426486,0.000001,0.000000,0.000000,0.000001,0.000000,0.000001,,,,,,,,,,,,,,,,,,,,,,,,,,,,,,,,,,,,,,,,,,,,,,,,,,,,,,,,,,,
1690309418.249699,0.002011,0.004639,0.010578,0.000001,0.000000,0.000000,0.000001,0.000000,0.000001,1678344350.660068,10.220681,0.151195,-0.461699,0.000001,0.000000,0.000000,0.000001,0.000000,0.000001,-86.743351,-104.346105,-0.557669,-0.400837,0.588530,175.995248,-0.426576,0.000001,0.000000,0.000000,0.000001,0.000000,0.000001,,,,,,,,,,,,,,,,,,,,,,,,,,,,,,,,,,,,,,,,,,,,,,,,,,,,,,,,,,,
1690309418.258171,0.003547,0.002978,0.004806,0.000001,0.000000,0.000000,0.000001,0.000000,0.000001,1678344350.670068,9.171893,-0.069327,-0.463965,0.000001,0.000000,0.000000,0.000001,0.000000,0.000001,-86.742699,-104.270335,-0.557595,-0.400935,0.588434,175.943049,-0.426714,0.000001,0.000000,0.000000,0.000001,0.000000,0.000001,,,,,,,,,,,,,,,,,,,,,,,,,,,,,,,,,,,,,,,,,,,,,,,,,,,,,,,,,,,
1690309418.267207,0.009998,0.000720,0.005954,0.000001,0.000000,0.000000,0.000001,0.000000,0.000001,1678344350.677568,10.114696,0.060474,-0.222595,0.000001,0.000000,0.000000,0.000001,0.000000,0.000001,-86.742571,-104.232200,-0.557533,-0.401021,0.588359,175.923907,-0.426817,0.000001,0.000000,0.000000,0.000001,0.000000,0.000001,,,,,,,,,,,,,,,,,,,,,,,,,,,,,,,,,,,,,,,,,,,,,,,,,,,,,,,,,,,
1690309418.275672,0.006767,0.015379,-0.008003,0.000001,0.000000,0.000000,0.000001,0.000000,0.000001,1678344350.685068,10.115461,-0.519701,-0.461300,0.000001,0.000000,0.000000,0.000001,0.000000,0.000001,-86.743079,-104.175873,-0.557483,-0.401097,0.588284,175.884824,-0.426914,0.000001,0.000000,0.000000,0.000001,0.000000,0.000001,,,,,,,,,,,,,,,,,,,,,,,,,,,,,,,,,,,,,,,,,,,,,,,,,,,,,,,,,,,
1690309418.284891,0.009682,0.008965,0.004480,0.000001,0.000000,0.000000,0.000001,0.000000,0.000001,1678344350.695068,8.960979,-0.730305,0.011567,0.000001,0.000000,0.000000,0.000001,0.000000,0.000001,-86.741379,-104.086377,-0.557414,-0.401178,0.588195,175.817204,-0.427051,0.000001,0.000000,0.000000,0.000001,0.000000,0.000001,,,,,,,,,,,,,,,,,,,,,,,,,,,,,,,,,,,,,,,,,,,,,,,,,,,,,,,,,,,
1690309418.292895,0.000379,0.002854,-0.002943,0.000001,0.000000,0.000000,0.000001,0.000000,0.000001,1678344350.702568,11.150511,-0.341811,-0.571696,0.000001,0.000000,0.000000,0.000001,0.000000,0.000001,-86.739843,-104.062121,-0.557344,-0.401260,0.588132,175.811298,-0.427153,0.000001,0.000000,0.000000,0.000001,0.000000,0.000001,,,,,,,,,,,,,,,,,,,,,,,,,,,,,,,,,,,,,,,,,,,,,,,,,,,,,,,,,,,
1690309418.301656,-0.005391,0.006502,0.013462,0.000001,0.000000,0.000000,0.000001,0.000000,0.000001,1678344350.710068,8.898396,-0.125756,0.085330,0.000001,0.000000,0.000000,0.000001,0.000000,0.000001,-86.739078,-103.936465,-0.557312,-0.401300,0.588055,175.700636,-0.427262,0.000001,0.000000,0.000000,0.000001,0.000000,0.000001,,,,,,,,,,,,,,,,,,,,,,,,,,,,,,,,,,,,,,,,,,,,,,,,,,,,,,,,,,,
1690309418.305524,,,,,,,,,,,,,,,,,,,,,,,,,,,,,,,,,1678315296.188078,0.000200,0.000000,0.000000,0.000000,0.000000,0.000000,0.000200,0.000000,0.000000,0.000000,0.000000,0.000200,0.000000,0.000000,0.000000,0.000000,0.000000,0.000000,0.000000,0.000000,0.000000,0.000000,0.000000,1.000000,0.000000,0.000000,0.000000,0.000000,-0.006423,2.056429,0.030908,0.000000,0.000000,0.000000,0.000000,0.000000,0.000000,0.000000,0.000000,0.000000,0.000000,0.000000,0.000000,0.000000,0.000000,0.000000,0.000000,0.000000,0.000000,0.000000,0.000000,0.000000,0.000000,0.000000,0.000000,0.000000,0.000000,0.000000
1690309418.310312,-0.002785,-0.001843,0.003443,0.000001,0.000000,0.000000,0.000001,0.000000,0.000001,1678344350.717568,9.858772,-0.107514,-0.323962,0.000001,0.000000,0.000000,0.000001,0.000000,0.000001,-86.738661,-103.936779,-0.557256,-0.401373,0.588006,175.715586,-0.427335,0.000001,0.000000,0.000000,0.000001,0.000000,0.000001,,,,,,,,,,,,,,,,,,,,,,,,,,,,,,,,,,,,,,,,,,,,,,,,,,,,,,,,,,,
1690309418.319186,0.006447,-0.000718,0.009912,0.000001,0.000000,0.000000,0.000001,0.000000,0.000001,1678344350.727568,9.591107,0.166319,-0.145193,0.000001,0.000000,0.000000,0.000001,0.000000,0.000001,-86.736359,-103.929990,-0.557157,-0.401484,0.587931,175.732645,-0.427462,0.000001,0.000000,0.000000,0.000001,0.000000,0.000001,,,,,,,,,,,,,,,,,,,,,,,,,,,,,,,,,,,,,,,,,,,,,,,,,,,,,,,,,,,
1690309418.328076,0.000056,0.001905,-0.005956,0.000001,0.000000,0.000000,0.000001,0.000000,0.000001,1678344350.735068,9.738310,-0.409005,-0.261356,0.000001,0.000000,0.000000,0.000001,0.000000,0.000001,-86.737283,-103.917974,-0.557106,-0.401565,0.587869,175.736267,-0.427537,0.000001,0.000000,0.000000,0.000001,0.000000,0.000001,,,,,,,,,,,,,,,,,,,,,,,,,,,,,,,,,,,,,,,,,,,,,,,,,,,,,,,,,,,
1690309418.336415,0.002856,-0.000905,0.002014,0.000001,0.000000,0.000000,0.000001,0.000000,0.000001,1678344350.742568,10.540409,-0.719818,-0.390429,0.000001,0.000000,0.000000,0.000001,0.000000,0.000001,-86.734963,-103.917397,-0.557034,-0.401640,0.587822,175.752104,-0.427626,0.000001,0.000000,0.000000,0.000001,0.000000,0.000001,,,,,,,,,,,,,,,,,,,,,,,,,,,,,,,,,,,,,,,,,,,,,,,,,,,,,,,,,,,
1690309418.345372,0.006669,0.001738,-0.006802,0.000001,0.000000,0.000000,0.000001,0.000000,0.000001,1678344350.752568,9.644898,-0.441796,-0.184844,0.000001,0.000000,0.000000,0.000001,0.000000,0.000001,-86.735800,-103.848144,-0.556972,-0.401736,0.587727,175.704536,-0.427747,0.000001,0.000000,0.000000,0.000001,0.000000,0.000001,,,,,,,,,,,,,,,,,,,,,,,,,,,,,,,,,,,,,,,,,,,,,,,,,,,,,,,,,,,
1690309418.354388,0.005358,0.010512,0.003194,0.000001,0.000000,0.000000,0.000001,0.000000,0.000001,1678344350.760068,10.021297,-0.909336,0.069751,0.000001,0.000000,0.000000,0.000001,0.000000,0.000001,-86.734200,-103.796682,-0.556910,-0.401806,0.587660,175.670796,-0.427853,0.000001,0.000000,0.000000,0.000001,0.000000,0.000001,,,,,,,,,,,,,,,,,,,,,,,,,,,,,,,,,,,,,,,,,,,,,,,,,,,,,,,,,,,
1690309418.357113,,,,,,,,,,,,,,,,,,,,,,,,,,,,,,,,,1678315296.239418,0.000200,0.000000,0.000000,0.000000,0.000000,0.000000,0.000200,0.000000,0.000000,0.000000,0.000000,0.000200,0.000000,0.000000,0.000000,0.000000,0.000000,0.000000,0.000000,0.000000,0.000000,0.000000,0.000000,1.000000,0.000000,0.000000,0.000000,0.000000,-0.006975,2.074135,0.030168,0.000000,0.000000,0.000000,0.000000,0.000000,0.000000,0.000000,0.000000,0.000000,0.000000,0.000000,0.000000,0.000000,0.000000,0.000000,0.000000,0.000000,0.000000,0.000000,0.000000,0.000000,0.000000,0.000000,0.000000,0.000000,0.000000,0.000000
1690309418.364985,-0.000662,0.004635,-0.002247,0.000001,0.000000,0.000000,0.000001,0.000000,0.000001,1678344350.767568,9.526847,0.346213,-0.030550,0.000001,0.000000,0.000000,0.000001,0.000000,0.000001,-86.735943,-103.775830,-0.556862,-0.401893,0.587589,175.666511,-0.427933,0.000001,0.000000,0.000000,0.000001,0.000000,0.000001,,,,,,,,,,,,,,,,,,,,,,,,,,,,,,,,,,,,,,,,,,,,,,,,,,,,,,,,,,,
1690309418.371336,0.001786,0.000013,-0.001897,0.000001,0.000000,0.000000,0.000001,0.000000,0.000001,1678344350.785068,10.103583,0.154994,-0.564003,0.000001,0.000000,0.000000,0.000001,0.000000,0.000001,-86.738663,-103.675861,-0.556744,-0.402088,0.587410,175.607661,-0.428148,0.000001,0.000000,0.000000,0.000001,0.000000,0.000001,,,,,,,,,,,,,,,,,,,,,,,,,,,,,,,,,,,,,,,,,,,,,,,,,,,,,,,,,,,
1690309418.380565,0.007980,-0.005674,-0.003971,0.000001,0.000000,0.000000,0.000001,0.000000,0.000001,1678344350.792568,9.676928,0.067893,-0.450631,0.000001,0.000000,0.000000,0.000001,0.000000,0.000001,-86.739494,-103.647135,-0.556681,-0.402185,0.587331,175.598653,-0.428249,0.000001,0.000000,0.000000,0.000001,0.000000,0.000001,,,,,,,,,,,,,,,,,,,,,,,,,,,,,,,,,,,,,,,,,,,,,,,,,,,,,,,,,,,
1690309418.388822,0.006575,0.001127,-0.006169,0.000001,0.000000,0.000000,0.000001,0.000000,0.000001,1678344350.800068,9.901516,-0.919103,-0.541549,0.000001,0.000000,0.000000,0.000001,0.000000,0.000001,-86.739768,-103.676210,-0.556594,-0.402306,0.587259,175.649611,-0.428346,0.000001,0.000000,0.000000,0.000001,0.000000,0.000001,,,,,,,,,,,,,,,,,,,,,,,,,,,,,,,,,,,,,,,,,,,,,,,,,,,,,,,,,,,
1690309418.397057,0.001403,0.008269,-0.001116,0.000001,0.000000,0.000000,0.000001,0.000000,0.000001,1678344350.810068,9.568389,-0.597523,-0.275627,0.000001,0.000000,0.000000,0.000001,0.000000,0.000001,-86.738467,-103.595932,-0.556519,-0.402398,0.587165,175.592522,-0.428485,0.000001,0.000000,0.000000,0.000001,0.000000,0.000001,,,,,,,,,,,,,,,,,,,,,,,,,,,,,,,,,,,,,,,,,,,,,,,,,,,,,,,,,,,
1690309418.406040,-0.003336,0.001893,0.000373,0.000001,0.000000,0.000000,0.000001,0.000000,0.000001,1678344350.817568,9.511946,-0.545967,0.428574,0.000001,0.000000,0.000000,0.000001,0.000000,0.000001,-86.738707,-103.608231,-0.556468,-0.402469,0.587121,175.617926,-0.428545,0.000001,0.000000,0.000000,0.000001,0.000000,0.000001,,,,,,,,,,,,,,,,,,,,,,,,,,,,,,,,,,,,,,,,,,,,,,,,,,,,,,,,,,,
1690309418.415016,0.001571,-0.001802,0.010974,0.000001,0.000000,0.000000,0.000001,0.000000,0.000001,1678344350.825068,10.082829,-0.356023,-0.463506,0.000001,0.000000,0.000000,0.000001,0.000000,0.000001,-86.734051,-103.627326,-0.556381,-0.402538,0.587090,175.653221,-0.428636,0.000001,0.000000,0.000000,0.000001,0.000000,0.000001,,,,,,,,,,,,,,,,,,,,,,,,,,,,,,,,,,,,,,,,,,,,,,,,,,,,,,,,,,,
1690309418.423375,-0.003405,0.014674,0.008284,0.000001,0.000000,0.000000,0.000001,0.000000,0.000001,1678344350.835068,9.957411,-0.227585,-0.163192,0.000001,0.000000,0.000000,0.000001,0.000000,0.000001,-86.732606,-103.528372,-0.556319,-0.402612,0.587001,175.575013,-0.428769,0.000001,0.000000,0.000000,0.000001,0.000000,0.000001,,,,,,,,,,,,,,,,,,,,,,,,,,,,,,,,,,,,,,,,,,,,,,,,,,,,,,,,,,,
1690309418.432484,0.005399,0.014598,0.009612,0.000001,0.000000,0.000000,0.000001,0.000000,0.000001,1678344350.842568,9.601006,0.340365,-0.707257,0.000001,0.000000,0.000000,0.000001,0.000000,0.000001,-86.731462,-103.407598,-0.556274,-0.402666,0.586916,175.472001,-0.428892,0.000001,0.000000,0.000000,0.000001,0.000000,0.000001,,,,,,,,,,,,,,,,,,,,,,,,,,,,,,,,,,,,,,,,,,,,,,,,,,,,,,,,,,,
1690309418.441519,0.004607,0.005388,0.006700,0.000001,0.000000,0.000000,0.000001,0.000000,0.000001,1678344350.850068,10.242208,0.027311,-0.587421,0.000001,0.000000,0.000000,0.000001,0.000000,0.000001,-86.730536,-103.315219,-0.556230,-0.402721,0.586842,175.395932,-0.429000,0.000001,0.000000,0.000000,0.000001,0.000000,0.000001,,,,,,,,,,,,,,,,,,,,,,,,,,,,,,,,,,,,,,,,,,,,,,,,,,,,,,,,,,,
1690309418.449816,0.008390,0.008986,0.009619,0.000001,0.000000,0.000000,0.000001,0.000000,0.000001,1678344350.857568,9.476198,-1.210340,0.218892,0.000001,0.000000,0.000000,0.000001,0.000000,0.000001,-86.725471,-103.222293,-0.556152,-0.402778,0.586773,175.323072,-0.429142,0.000001,0.000000,0.000000,0.000001,0.000000,0.000001,,,,,,,,,,,,,,,,,,,,,,,,,,,,,,,,,,,,,,,,,,,,,,,,,,,,,,,,,,,
1690309418.458220,0.008463,0.007620,0.005747,0.000001,0.000000,0.000000,0.000001,0.000000,0.000001,1678344350.867568,9.193336,-0.952352,0.004129,0.000001,0.000000,0.000000,0.000001,0.000000,0.000001,-86.722263,-103.156037,-0.556060,-0.402872,0.586687,175.281149,-0.429290,0.000001,0.000000,0.000000,0.000001,0.000000,0.000001,,,,,,,,,,,,,,,,,,,,,,,,,,,,,,,,,,,,,,,,,,,,,,,,,,,,,,,,,,,
1690309418.466906,0.001407,0.015479,0.008529,0.000001,0.000000,0.000000,0.000001,0.000000,0.000001,1678344350.875068,10.155535,-0.554539,0.325503,0.000001,0.000000,0.000000,0.000001,0.000000,0.000001,-86.716536,-103.118379,-0.555987,-0.402913,0.586653,175.258053,-0.429393,0.000001,0.000000,0.000000,0.000001,0.000000,0.000001,,,,,,,,,,,,,,,,,,,,,,,,,,,,,,,,,,,,,,,,,,,,,,,,,,,,,,,,,,,
1690309418.476036,-0.001132,0.002658,0.009532,0.000001,0.000000,0.000000,0.000001,0.000000,0.000001,1678344350.882568,9.295943,0.182907,0.279179,0.000001,0.000000,0.000000,0.000001,0.000000,0.000001,-86.713639,-103.072383,-0.555924,-0.402970,0.586599,175.228111,-0.429495,0.000001,0.000000,0.000000,0.000001,0.000000,0.000001,,,,,,,,,,,,,,,,,,,,,,,,,,,,,,,,,,,,,,,,,,,,,,,,,,,,,,,,,,,
1690309418.484236,0.004859,-0.003396,0.011366,0.000001,0.000000,0.000000,0.000001,0.000000,0.000001,1678344350.892568,10.255928,-0.098759,-0.099411,0.000001,0.000000,0.000000,0.000001,0.000000,0.000001,-86.708281,-103.112729,-0.555800,-0.403079,0.586550,175.291962,-0.429619,0.000001,0.000000,0.000000,0.000001,0.000000,0.000001,,,,,,,,,,,,,,,,,,,,,,,,,,,,,,,,,,,,,,,,,,,,,,,,,,,,,,,,,,,
1690309418.493519,0.003972,0.004045,0.002261,0.000001,0.000000,0.000000,0.000001,0.000000,0.000001,1678344350.900068,9.993757,0.443368,-1.012634,0.000001,0.000000,0.000000,0.000001,0.000000,0.000001,-86.708385,-103.042979,-0.555732,-0.403177,0.586453,175.244783,-0.429747,0.000001,0.000000,0.000000,0.000001,0.000000,0.000001,,,,,,,,,,,,,,,,,,,,,,,,,,,,,,,,,,,,,,,,,,,,,,,,,,,,,,,,,,,
1690309418.501930,0.005627,-0.005783,-0.001276,0.000001,0.000000,0.000000,0.000001,0.000000,0.000001,1678344350.907568,9.913412,-0.324013,-0.733443,0.000001,0.000000,0.000000,0.000001,0.000000,0.000001,-86.708881,-102.983213,-0.555686,-0.403248,0.586379,175.201649,-0.429842,0.000001,0.000000,0.000000,0.000001,0.000000,0.000001,,,,,,,,,,,,,,,,,,,,,,,,,,,,,,,,,,,,,,,,,,,,,,,,,,,,,,,,,,,
1690309418.510498,0.004997,0.002565,-0.005117,0.000001,0.000000,0.000000,0.000001,0.000000,0.000001,1678344350.917568,9.824856,-0.222233,-0.793439,0.000001,0.000000,0.000000,0.000001,0.000000,0.000001,-86.710093,-102.938203,-0.555625,-0.403346,0.586290,175.177224,-0.429949,0.000001,0.000000,0.000000,0.000001,0.000000,0.000001,,,,,,,,,,,,,,,,,,,,,,,,,,,,,,,,,,,,,,,,,,,,,,,,,,,,,,,,,,,
1690309418.519469,0.013047,-0.003390,0.010801,0.000001,0.000000,0.000000,0.000001,0.000000,0.000001,1678344350.925068,9.127149,-0.628451,0.145951,0.000001,0.000000,0.000000,0.000001,0.000000,0.000001,-86.705731,-102.902405,-0.555548,-0.403407,0.586241,175.158666,-0.430059,0.000001,0.000000,0.000000,0.000001,0.000000,0.000001,,,,,,,,,,,,,,,,,,,,,,,,,,,,,,,,,,,,,,,,,,,,,,,,,,,,,,,,,,,
1690309418.527818,0.005264,0.017194,-0.011548,0.000001,0.000000,0.000000,0.000001,0.000000,0.000001,1678344350.932568,10.175999,-0.235781,0.550544,0.000001,0.000000,0.000000,0.000001,0.000000,0.000001,-86.708805,-102.889627,-0.555500,-0.403505,0.586163,175.163369,-0.430135,0.000001,0.000000,0.000000,0.000001,0.000000,0.000001,,,,,,,,,,,,,,,,,,,,,,,,,,,,,,,,,,,,,,,,,,,,,,,,,,,,,,,,,,,
1690309418.536436,0.000682,0.014488,-0.006643,0.000001,0.000000,0.000000,0.000001,0.000000,0.000001,1678344350.942568,9.986004,-0.701476,0.071197,0.000001,0.000000,0.000000,0.000001,0.000000,0.000001,-86.712070,-102.810989,-0.555456,-0.403605,0.586056,175.105566,-0.430244,0.000001,0.000000,0.000000,0.000001,0.000000,0.000001,,,,,,,,,,,,,,,,,,,,,,,,,,,,,,,,,,,,,,,,,,,,,,,,,,,,,,,,,,,
1690309418.545267,0.011196,-0.006667,0.002236,0.000001,0.000000,0.000000,0.000001,0.000000,0.000001,1678344350.957568,9.383006,-0.020563,-0.243414,0.000001,0.000000,0.000000,0.000001,0.000000,0.000001,-86.718706,-102.721646,-0.555384,-0.403777,0.585889,175.049291,-0.430402,0.000001,0.000000,0.000000,0.000001,0.000000,0.000001,,,,,,,,,,,,,,,,,,,,,,,,,,,,,,,,,,,,,,,,,,,,,,,,,,,,,,,,,,,
1690309418.553952,0.007307,-0.002083,-0.005585,0.000001,0.000000,0.000000,0.000001,0.000000,0.000001,1678344350.965068,10.762666,-0.129251,-0.655156,0.000001,0.000000,0.000000,0.000001,0.000000,0.000001,-86.718955,-102.691144,-0.555323,-0.403864,0.585816,175.037161,-0.430498,0.000001,0.000000,0.000000,0.000001,0.000000,0.000001,,,,,,,,,,,,,,,,,,,,,,,,,,,,,,,,,,,,,,,,,,,,,,,,,,,,,,,,,,,
1690309418.556237,,,,,,,,,,,,,,,,,,,,,,,,,,,,,,,,,1678315296.439369,0.000200,0.000000,0.000000,0.000000,0.000000,0.000000,0.000200,0.000000,0.000000,0.000000,0.000000,0.000200,0.000000,0.000000,0.000000,0.000000,0.000000,0.000000,0.000000,0.000000,0.000000,0.000000,0.000000,1.000000,0.000000,0.000000,0.000000,0.000000,-0.007016,2.091329,0.030711,0.000000,0.000000,0.000000,0.000000,0.000000,0.000000,0.000000,0.000000,0.000000,0.000000,0.000000,0.000000,0.000000,0.000000,0.000000,0.000000,0.000000,0.000000,0.000000,0.000000,0.000000,0.000000,0.000000,0.000000,0.000000,0.000000,0.000000
1690309418.562773,0.003875,-0.010943,0.000837,0.000001,0.000000,0.000000,0.000001,0.000000,0.000001,1678344350.975068,9.150296,-0.045254,-0.657331,0.000001,0.000000,0.000000,0.000001,0.000000,0.000001,-86.718691,-102.637589,-0.555242,-0.403974,0.585719,175.008144,-0.430633,0.000001,0.000000,0.000000,0.000001,0.000000,0.000001,,,,,,,,,,,,,,,,,,,,,,,,,,,,,,,,,,,,,,,,,,,,,,,,,,,,,,,,,,,
1690309418.571010,0.005942,-0.000043,-0.010562,0.000001,0.000000,0.000000,0.000001,0.000000,0.000001,1678344350.982568,10.028643,-0.704171,-0.288739,0.000001,0.000000,0.000000,0.000001,0.000000,0.000001,-86.719691,-102.636974,-0.555190,-0.404056,0.585660,175.022811,-0.430703,0.000001,0.000000,0.000000,0.000001,0.000000,0.000001,,,,,,,,,,,,,,,,,,,,,,,,,,,,,,,,,,,,,,,,,,,,,,,,,,,,,,,,,,,
1690309418.580132,0.002023,0.014236,0.004982,0.000001,0.000000,0.000000,0.000001,0.000000,0.000001,1678344350.990068,9.463474,-0.429439,-0.101323,0.000001,0.000000,0.000000,0.000001,0.000000,0.000001,-86.718359,-102.622056,-0.555132,-0.404122,0.585611,175.022485,-0.430783,0.000001,0.000000,0.000000,0.000001,0.000000,0.000001,,,,,,,,,,,,,,,,,,,,,,,,,,,,,,,,,,,,,,,,,,,,,,,,,,,,,,,,,,,
1690309418.589183,0.002030,0.024518,0.003565,0.000001,0.000000,0.000000,0.000001,0.000000,0.000001,1678344351.000068,9.541186,-0.695790,0.156609,0.000001,0.000000,0.000000,0.000001,0.000000,0.000001,-86.718285,-102.536697,-0.555073,-0.404205,0.585518,174.957965,-0.430907,0.000001,0.000000,0.000000,0.000001,0.000000,0.000001,,,,,,,,,,,,,,,,,,,,,,,,,,,,,,,,,,,,,,,,,,,,,,,,,,,,,,,,,,,
1690309418.597496,0.002036,0.012919,0.000360,0.000001,0.000000,0.000000,0.000001,0.000000,0.000001,1678344351.007568,10.510741,0.221551,-0.341912,0.000001,0.000000,0.000000,0.000001,0.000000,0.000001,-86.720387,-102.485679,-0.555011,-0.404315,0.585417,174.929417,-0.431021,0.000001,0.000000,0.000000,0.000001,0.000000,0.000001,,,,,,,,,,,,,,,,,,,,,,,,,,,,,,,,,,,,,,,,,,,,,,,,,,,,,,,,,,,
1690309418.608847,0.009487,-0.010948,0.004210,0.000001,0.000000,0.000000,0.000001,0.000000,0.000001,1678344351.015068,8.965576,-0.053439,-0.424415,0.000001,0.000000,0.000000,0.000001,0.000000,0.000001,-86.720110,-102.447662,-0.554949,-0.404398,0.585345,174.909887,-0.431122,0.000001,0.000000,0.000000,0.000001,0.000000,0.000001,,,,,,,,,,,,,,,,,,,,,,,,,,,,,,,,,,,,,,,,,,,,,,,,,,,,,,,,,,,
1690309418.614511,0.002924,-0.004755,0.005143,0.000001,0.000000,0.000000,0.000001,0.000000,0.000001,1678344351.025068,10.381571,-0.048872,-0.747947,0.000001,0.000000,0.000000,0.000001,0.000000,0.000001,-86.717562,-102.476020,-0.554843,-0.404514,0.585281,174.961485,-0.431237,0.000001,0.000000,0.000000,0.000001,0.000000,0.000001,,,,,,,,,,,,,,,,,,,,,,,,,,,,,,,,,,,,,,,,,,,,,,,,,,,,,,,,,,,
1690309418.623701,0.003495,0.002941,-0.007610,0.000001,0.000000,0.000000,0.000001,0.000000,0.000001,1678344351.032568,10.242754,-0.123239,-0.480575,0.000001,0.000000,0.000000,0.000001,0.000000,0.000001,-86.718717,-102.462685,-0.554785,-0.404605,0.585210,174.965786,-0.431321,0.000001,0.000000,0.000000,0.000001,0.000000,0.000001,,,,,,,,,,,,,,,,,,,,,,,,,,,,,,,,,,,,,,,,,,,,,,,,,,,,,,,,,,,
1690309418.632336,0.000259,-0.005311,-0.002021,0.000001,0.000000,0.000000,0.000001,0.000000,0.000001,1678344351.040068,8.879993,-0.707200,-0.282739,0.000001,0.000000,0.000000,0.000001,0.000000,0.000001,-86.719420,-102.421358,-0.554740,-0.404675,0.585143,174.939724,-0.431403,0.000001,0.000000,0.000000,0.000001,0.000000,0.000001,,,,,,,,,,,,,,,,,,,,,,,,,,,,,,,,,,,,,,,,,,,,,,,,,,,,,,,,,,,
1690309418.641054,-0.001910,0.003973,-0.005060,0.000001,0.000000,0.000000,0.000001,0.000000,0.000001,1678344351.047568,10.378178,-0.474106,-0.144524,0.000001,0.000000,0.000000,0.000001,0.000000,0.000001,-86.719994,-102.454137,-0.554677,-0.404766,0.585093,174.988052,-0.431467,0.000001,0.000000,0.000000,0.000001,0.000000,0.000001,,,,,,,,,,,,,,,,,,,,,,,,,,,,,,,,,,,,,,,,,,,,,,,,,,,,,,,,,,,
1690309418.649479,-0.000045,0.009499,0.003917,0.000001,0.000000,0.000000,0.000001,0.000000,0.000001,1678344351.057568,9.661230,-0.268006,-0.478134,0.000001,0.000000,0.000000,0.000001,0.000000,0.000001,-86.721443,-102.422243,-0.554619,-0.404861,0.585012,174.975267,-0.431563,0.000001,0.000000,0.000000,0.000001,0.000000,0.000001,,,,,,,,,,,,,,,,,,,,,,,,,,,,,,,,,,,,,,,,,,,,,,,,,,,,,,,,,,,
1690309418.656927,,,,,,,,,,,,,,,,,,,,,,,,,,,,,,,,,1678315296.539187,0.000200,0.000000,0.000000,0.000000,0.000000,0.000000,0.000200,0.000000,0.000000,0.000000,0.000000,0.000200,0.000000,0.000000,0.000000,0.000000,0.000000,0.000000,0.000000,0.000000,0.000000,0.000000,0.000000,1.000000,0.000000,0.000000,0.000000,0.000000,-0.007158,2.109137,0.030432,0.000000,0.000000,0.000000,0.000000,0.000000,0.000000,0.000000,0.000000,0.000000,0.000000,0.000000,0.000000,0.000000,0.000000,0.000000,0.000000,0.000000,0.000000,0.000000,0.000000,0.000000,0.000000,0.000000,0.000000,0.000000,0.000000,0.000000
1690309418.658085,-0.000088,0.003951,-0.004315,0.000001,0.000000,0.000000,0.000001,0.000000,0.000001,1678344351.065068,10.503965,0.164050,-0.765816,0.000001,0.000000,0.000000,0.000001,0.000000,0.000001,-86.721706,-102.415169,-0.554563,-0.404940,0.584954,174.983831,-0.431639,0.000001,0.000000,0.000000,0.000001,0.000000,0.000001,,,,,,,,,,,,,,,,,,,,,,,,,,,,,,,,,,,,,,,,,,,,,,,,,,,,,,,,,,,
1690309418.667333,-0.005113,0.009393,0.004754,0.000001,0.000000,0.000000,0.000001,0.000000,0.000001,1678344351.072568,9.561446,-0.197974,-0.284641,0.000001,0.000000,0.000000,0.000001,0.000000,0.000001,-86.724395,-102.345225,-0.554544,-0.404998,0.584880,174.926654,-0.431709,0.000001,0.000000,0.000000,0.000001,0.000000,0.000001,,,,,,,,,,,,,,,,,,,,,,,,,,,,,,,,,,,,,,,,,,,,,,,,,,,,,,,,,,,
1690309418.676884,-0.000174,-0.007699,-0.000983,0.000001,0.000000,0.000000,0.000001,0.000000,0.000001,1678344351.082568,9.692351,-0.206041,-0.425764,0.000001,0.000000,0.000000,0.000001,0.000000,0.000001,-86.724609,-102.263464,-0.554481,-0.405090,0.584782,174.867126,-0.431837,0.000001,0.000000,0.000000,0.000001,0.000000,0.000001,,,,,,,,,,,,,,,,,,,,,,,,,,,,,,,,,,,,,,,,,,,,,,,,,,,,,,,,,,,
1690309418.684207,0.005365,0.002868,-0.004622,0.000001,0.000000,0.000000,0.000001,0.000000,0.000001,1678344351.090068,9.918430,-0.170166,-0.163816,0.000001,0.000000,0.000000,0.000001,0.000000,0.000001,-86.725640,-102.261023,-0.554420,-0.405184,0.584714,174.882356,-0.431919,0.000001,0.000000,0.000000,0.000001,0.000000,0.000001,,,,,,,,,,,,,,,,,,,,,,,,,,,,,,,,,,,,,,,,,,,,,,,,,,,,,,,,,,,
1690309418.693094,0.003893,0.009707,-0.002831,0.000001,0.000000,0.000000,0.000001,0.000000,0.000001,1678344351.097568,9.467681,-0.506455,-0.203637,0.000001,0.000000,0.000000,0.000001,0.000000,0.000001,-86.726145,-102.217819,-0.554379,-0.405246,0.584652,174.853116,-0.431996,0.000001,0.000000,0.000000,0.000001,0.000000,0.000001,,,,,,,,,,,,,,,,,,,,,,,,,,,,,,,,,,,,,,,,,,,,,,,,,,,,,,,,,,,
1690309418.701868,0.007813,0.006590,-0.006679,0.000001,0.000000,0.000000,0.000001,0.000000,0.000001,1678344351.107568,10.014929,-0.605348,-0.172891,0.000001,0.000000,0.000000,0.000001,0.000000,0.000001,-86.727637,-102.215947,-0.554303,-0.405365,0.584567,174.873495,-0.432098,0.000001,0.000000,0.000000,0.000001,0.000000,0.000001,,,,,,,,,,,,,,,,,,,,,,,,,,,,,,,,,,,,,,,,,,,,,,,,,,,,,,,,,,,
1690309418.710210,-0.001495,0.004763,0.008062,0.000001,0.000000,0.000000,0.000001,0.000000,0.000001,1678344351.115068,9.331255,-0.572085,0.570215,0.000001,0.000000,0.000000,0.000001,0.000000,0.000001,-86.725044,-102.185439,-0.554240,-0.405424,0.584517,174.858272,-0.432191,0.000001,0.000000,0.000000,0.000001,0.000000,0.000001,,,,,,,,,,,,,,,,,,,,,,,,,,,,,,,,,,,,,,,,,,,,,,,,,,,,,,,,,,,
1690309418.719011,-0.002511,0.015745,0.008192,0.000001,0.000000,0.000000,0.000001,0.000000,0.000001,1678344351.122568,10.220194,0.313147,-0.452305,0.000001,0.000000,0.000000,0.000001,0.000000,0.000001,-86.725147,-102.141922,-0.554199,-0.405484,0.584458,174.828550,-0.432268,0.000001,0.000000,0.000000,0.000001,0.000000,0.000001,,,,,,,,,,,,,,,,,,,,,,,,,,,,,,,,,,,,,,,,,,,,,,,,,,,,,,,,,,,
1690309418.728132,-0.003064,0.003950,0.005212,0.000001,0.000000,0.000000,0.000001,0.000000,0.000001,1678344351.130068,9.684922,-0.157958,-0.229002,0.000001,0.000000,0.000000,0.000001,0.000000,0.000001,-86.725806,-102.020629,-0.554174,-0.405530,0.584374,174.722098,-0.432370,0.000001,0.000000,0.000000,0.000001,0.000000,0.000001,,,,,,,,,,,,,,,,,,,,,,,,,,,,,,,,,,,,,,,,,,,,,,,,,,,,,,,,,,,
1690309418.736606,-0.000302,-0.017217,0.009295,0.000001,0.000000,0.000000,0.000001,0.000000,0.000001,1678344351.140068,10.017096,-0.032419,-0.272228,0.000001,0.000000,0.000000,0.000001,0.000000,0.000001,-86.722604,-102.033060,-0.554078,-0.405625,0.584318,174.755114,-0.432479,0.000001,0.000000,0.000000,0.000001,0.000000,0.000001,,,,,,,,,,,,,,,,,,,,,,,,,,,,,,,,,,,,,,,,,,,,,,,,,,,,,,,,,,,
1690309418.745255,0.007046,-0.004277,-0.002943,0.000001,0.000000,0.000000,0.000001,0.000000,0.000001,1678344351.147568,9.756468,-0.122265,-0.263626,0.000001,0.000000,0.000000,0.000001,0.000000,0.000001,-86.723046,-102.036778,-0.554025,-0.405702,0.584266,174.773371,-0.432546,0.000001,0.000000,0.000000,0.000001,0.000000,0.000001,,,,,,,,,,,,,,,,,,,,,,,,,,,,,,,,,,,,,,,,,,,,,,,,,,,,,,,,,,,
1690309418.753981,0.007255,0.000253,0.007955,0.000001,0.000000,0.000000,0.000001,0.000000,0.000001,1678344351.155068,9.570730,-0.564242,-0.057371,0.000001,0.000000,0.000000,0.000001,0.000000,0.000001,-86.718541,-102.010727,-0.553951,-0.405755,0.584225,174.762762,-0.432646,0.000001,0.000000,0.000000,0.000001,0.000000,0.000001,,,,,,,,,,,,,,,,,,,,,,,,,,,,,,,,,,,,,,,,,,,,,,,,,,,,,,,,,,,
1690309418.755397,,,,,,,,,,,,,,,,,,,,,,,,,,,,,,,,,1678315296.638436,0.000200,0.000000,0.000000,0.000000,0.000000,0.000000,0.000200,0.000000,0.000000,0.000000,0.000000,0.000200,0.000000,0.000000,0.000000,0.000000,0.000000,0.000000,0.000000,0.000000,0.000000,0.000000,0.000000,1.000000,0.000000,0.000000,0.000000,0.000000,-0.007234,2.126406,0.031555,0.000000,0.000000,0.000000,0.000000,0.000000,0.000000,0.000000,0.000000,0.000000,0.000000,0.000000,0.000000,0.000000,0.000000,0.000000,0.000000,0.000000,0.000000,0.000000,0.000000,0.000000,0.000000,0.000000,0.000000,0.000000,0.000000,0.000000
1690309418.762760,-0.000706,0.011524,0.014216,0.000001,0.000000,0.000000,0.000001,0.000000,0.000001,1678344351.172568,9.301998,-0.798962,0.607304,0.000001,0.000000,0.000000,0.000001,0.000000,0.000001,-86.708234,-101.935968,-0.553774,-0.405888,0.584117,174.726490,-0.432893,0.000001,0.000000,0.000000,0.000001,0.000000,0.000001,,,,,,,,,,,,,,,,,,,,,,,,,,,,,,,,,,,,,,,,,,,,,,,,,,,,,,,,,,,
1690309418.771461,-0.004703,-0.011173,0.000527,0.000001,0.000000,0.000000,0.000001,0.000000,0.000001,1678344351.180068,9.830926,0.316893,-0.038919,0.000001,0.000000,0.000000,0.000001,0.000000,0.000001,-86.705777,-101.989661,-0.553692,-0.405971,0.584086,174.795706,-0.432963,0.000001,0.000000,0.000000,0.000001,0.000000,0.000001,,,,,,,,,,,,,,,,,,,,,,,,,,,,,,,,,,,,,,,,,,,,,,,,,,,,,,,,,,,
1690309418.780390,0.000633,0.004522,0.011868,0.000001,0.000000,0.000000,0.000001,0.000000,0.000001,1678344351.190068,9.866476,-0.098736,-0.278433,0.000001,0.000000,0.000000,0.000001,0.000000,0.000001,-86.704345,-102.013389,-0.553602,-0.406076,0.584025,174.839873,-0.433061,0.000001,0.000000,0.000000,0.000001,0.000000,0.000001,,,,,,,,,,,,,,,,,,,,,,,,,,,,,,,,,,,,,,,,,,,,,,,,,,,,,,,,,,,
1690309418.791487,-0.003065,0.006918,0.005669,0.000001,0.000000,0.000000,0.000001,0.000000,0.000001,1678344351.197568,10.265718,0.036099,-0.579346,0.000001,0.000000,0.000000,0.000001,0.000000,0.000001,-86.705036,-101.933789,-0.553565,-0.406136,0.583948,174.775800,-0.433155,0.000001,0.000000,0.000000,0.000001,0.000000,0.000001,,,,,,,,,,,,,,,,,,,,,,,,,,,,,,,,,,,,,,,,,,,,,,,,,,,,,,,,,,,
1690309418.797266,0.006575,0.013595,-0.007465,0.000001,0.000000,0.000000,0.000001,0.000000,0.000001,1678344351.205068,9.825317,-0.154128,-0.414345,0.000001,0.000000,0.000000,0.000001,0.000000,0.000001,-86.706442,-101.793802,-0.553543,-0.406189,0.583851,174.652198,-0.433265,0.000001,0.000000,0.000000,0.000001,0.000000,0.000001,,,,,,,,,,,,,,,,,,,,,,,,,,,,,,,,,,,,,,,,,,,,,,,,,,,,,,,,,,,
1690309418.806530,0.007368,0.007268,-0.004777,0.000001,0.000000,0.000000,0.000001,0.000000,0.000001,1678344351.212568,8.733206,-0.721417,0.278120,0.000001,0.000000,0.000000,0.000001,0.000000,0.000001,-86.708349,-101.760521,-0.553499,-0.406270,0.583777,174.635089,-0.433345,0.000001,0.000000,0.000000,0.000001,0.000000,0.000001,,,,,,,,,,,,,,,,,,,,,,,,,,,,,,,,,,,,,,,,,,,,,,,,,,,,,,,,,,,
1690309418.814954,0.000650,-0.005828,-0.006747,0.000001,0.000000,0.000000,0.000001,0.000000,0.000001,1678344351.222568,10.046896,-0.540802,0.018856,0.000001,0.000000,0.000000,0.000001,0.000000,0.000001,-86.708151,-101.877438,-0.553393,-0.406404,0.583733,174.772406,-0.433413,0.000001,0.000000,0.000000,0.000001,0.000000,0.000001,,,,,,,,,,,,,,,,,,,,,,,,,,,,,,,,,,,,,,,,,,,,,,,,,,,,,,,,,,,
1690309418.823479,-0.002010,0.021494,0.006255,0.000001,0.000000,0.000000,0.000001,0.000000,0.000001,1678344351.230068,9.834999,-1.017201,0.260352,0.000001,0.000000,0.000000,0.000001,0.000000,0.000001,-86.708796,-101.826718,-0.553351,-0.406471,0.583665,174.736816,-0.433497,0.000001,0.000000,0.000000,0.000001,0.000000,0.000001,,,,,,,,,,,,,,,,,,,,,,,,,,,,,,,,,,,,,,,,,,,,,,,,,,,,,,,,,,,
1690309418.832299,-0.001517,0.009377,0.010105,0.000001,0.000000,0.000000,0.000001,0.000000,0.000001,1678344351.237568,9.910178,0.434194,0.453635,0.000001,0.000000,0.000000,0.000001,0.000000,0.000001,-86.705603,-101.745728,-0.553297,-0.406514,0.583606,174.671142,-0.433605,0.000001,0.000000,0.000000,0.000001,0.000000,0.000001,,,,,,,,,,,,,,,,,,,,,,,,,,,,,,,,,,,,,,,,,,,,,,,,,,,,,,,,,,,
1690309418.840714,0.003416,0.002452,-0.000599,0.000001,0.000000,0.000000,0.000001,0.000000,0.000001,1678344351.247568,10.165002,-0.531515,-0.001650,0.000001,0.000000,0.000000,0.000001,0.000000,0.000001,-86.707689,-101.684089,-0.553238,-0.406619,0.583503,174.631656,-0.433720,0.000001,0.000000,0.000000,0.000001,0.000000,0.000001,,,,,,,,,,,,,,,,,,,,,,,,,,,,,,,,,,,,,,,,,,,,,,,,,,,,,,,,,,,
1690309418.850170,-0.003645,0.001130,-0.000584,0.000001,0.000000,0.000000,0.000001,0.000000,0.000001,1678344351.255068,9.861708,-0.071486,-0.186321,0.000001,0.000000,0.000000,0.000001,0.000000,0.000001,-86.708372,-101.635734,-0.553195,-0.406686,0.583435,174.598439,-0.433803,0.000001,0.000000,0.000000,0.000001,0.000000,0.000001,,,,,,,,,,,,,,,,,,,,,,,,,,,,,,,,,,,,,,,,,,,,,,,,,,,,,,,,,,,
1690309418.857122,,,,,,,,,,,,,,,,,,,,,,,,,,,,,,,,,1678315296.738529,0.000200,0.000000,0.000000,0.000000,0.000000,0.000000,0.000200,0.000000,0.000000,0.000000,0.000000,0.000200,0.000000,0.000000,0.000000,0.000000,0.000000,0.000000,0.000000,0.000000,0.000000,0.000000,0.000000,1.000000,0.000000,0.000000,0.000000,0.000000,-0.006829,2.143412,0.033405,0.000000,0.000000,0.000000,0.000000,0.000000,0.000000,0.000000,0.000000,0.000000,0.000000,0.000000,0.000000,0.000000,0.000000,0.000000,0.000000,0.000000,0.000000,0.000000,0.000000,0.000000,0.000000,0.000000,0.000000,0.000000,0.000000,0.000000
1690309418.858501,-0.000253,0.002130,0.000458,0.000001,0.000000,0.000000,0.000001,0.000000,0.000001,1678344351.262568,9.514072,-0.004445,-0.630996,0.000001,0.000000,0.000000,0.000001,0.000000,0.000001,-86.710485,-101.566967,-0.553170,-0.406746,0.583361,174.543182,-0.433878,0.000001,0.000000,0.000000,0.000001,0.000000,0.000001,,,,,,,,,,,,,,,,,,,,,,,,,,,,,,,,,,,,,,,,,,,,,,,,,,,,,,,,,,,
1690309418.866990,-0.001693,-0.000677,-0.003889,0.000001,0.000000,0.000000,0.000001,0.000000,0.000001,1678344351.272568,10.644867,-0.287998,-0.740786,0.000001,0.000000,0.000000,0.000001,0.000000,0.000001,-86.709086,-101.476064,-0.553109,-0.406818,0.583275,174.472313,-0.434004,0.000001,0.000000,0.000000,0.000001,0.000000,0.000001,,,,,,,,,,,,,,,,,,,,,,,,,,,,,,,,,,,,,,,,,,,,,,,,,,,,,,,,,,,
1690309418.876869,0.001312,-0.005883,-0.010140,0.000001,0.000000,0.000000,0.000001,0.000000,0.000001,1678344351.280068,8.792903,-0.175540,-0.158200,0.000001,0.000000,0.000000,0.000001,0.000000,0.000001,-86.711047,-101.462218,-0.553068,-0.406895,0.583212,174.472727,-0.434069,0.000001,0.000000,0.000000,0.000001,0.000000,0.000001,,,,,,,,,,,,,,,,,,,,,,,,,,,,,,,,,,,,,,,,,,,,,,,,,,,,,,,,,,,
1690309418.884133,-0.002582,0.000689,0.003836,0.000001,0.000000,0.000000,0.000001,0.000000,0.000001,1678344351.287568,9.388438,-0.864191,0.148235,0.000001,0.000000,0.000000,0.000001,0.000000,0.000001,-86.709258,-101.503066,-0.552999,-0.406966,0.583183,174.526848,-0.434129,0.000001,0.000000,0.000000,0.000001,0.000000,0.000001,,,,,,,,,,,,,,,,,,,,,,,,,,,,,,,,,,,,,,,,,,,,,,,,,,,,,,,,,,,
1690309418.892655,0.008152,-0.000377,-0.001810,0.000001,0.000000,0.000000,0.000001,0.000000,0.000001,1678344351.297568,9.555510,-0.513190,0.532986,0.000001,0.000000,0.000000,0.000001,0.000000,0.000001,-86.708524,-101.516980,-0.552908,-0.407080,0.583110,174.563031,-0.434236,0.000001,0.000000,0.000000,0.000001,0.000000,0.000001,,,,,,,,,,,,,,,,,,,,,,,,,,,,,,,,,,,,,,,,,,,,,,,,,,,,,,,,,,,
1690309418.901855,0.006064,0.003021,0.011186,0.000001,0.000000,0.000000,0.000001,0.000000,0.000001,1678344351.305068,9.821740,-0.262128,0.119645,0.000001,0.000000,0.000000,0.000001,0.000000,0.000001,-86.705399,-101.519311,-0.552826,-0.407157,0.583062,174.583065,-0.434333,0.000001,0.000000,0.000000,0.000001,0.000000,0.000001,,,,,,,,,,,,,,,,,,,,,,,,,,,,,,,,,,,,,,,,,,,,,,,,,,,,,,,,,,,
1690309418.910263,0.002600,-0.002839,-0.001501,0.000001,0.000000,0.000000,0.000001,0.000000,0.000001,1678344351.312568,9.731783,0.331621,-1.178694,0.000001,0.000000,0.000000,0.000001,0.000000,0.000001,-86.707055,-101.530502,-0.552768,-0.407252,0.582998,174.610831,-0.434404,0.000001,0.000000,0.000000,0.000001,0.000000,0.000001,,,,,,,,,,,,,,,,,,,,,,,,,,,,,,,,,,,,,,,,,,,,,,,,,,,,,,,,,,,
1690309418.919122,0.002114,0.006267,-0.000629,0.000001,0.000000,0.000000,0.000001,0.000000,0.000001,1678344351.320068,10.174015,-0.148782,-0.232632,0.000001,0.000000,0.000000,0.000001,0.000000,0.000001,-86.707395,-101.508788,-0.552721,-0.407319,0.582942,174.603180,-0.434476,0.000001,0.000000,0.000000,0.000001,0.000000,0.000001,,,,,,,,,,,,,,,,,,,,,,,,,,,,,,,,,,,,,,,,,,,,,,,,,,,,,,,,,,,
1690309418.928824,-0.007527,0.015501,0.003044,0.000001,0.000000,0.000000,0.000001,0.000000,0.000001,1678344351.345068,8.939129,0.064773,-0.775228,0.000001,0.000000,0.000000,0.000001,0.000000,0.000001,-86.702838,-101.185497,-0.552581,-0.407477,0.582701,174.331567,-0.434829,0.000001,0.000000,0.000000,0.000001,0.000000,0.000001,,,,,,,,,,,,,,,,,,,,,,,,,,,,,,,,,,,,,,,,,,,,,,,,,,,,,,,,,,,
1690309418.936359,0.005556,0.015665,0.000136,0.000001,0.000000,0.000000,0.000001,0.000000,0.000001,1678344351.355068,10.169728,-0.395122,-0.786330,0.000001,0.000000,0.000000,0.000001,0.000000,0.000001,-86.703277,-101.109623,-0.552502,-0.407592,0.582589,174.281712,-0.434972,0.000001,0.000000,0.000000,0.000001,0.000000,0.000001,,,,,,,,,,,,,,,,,,,,,,,,,,,,,,,,,,,,,,,,,,,,,,,,,,,,,,,,,,,
1690309418.945167,0.001419,0.009165,0.009868,0.000001,0.000000,0.000000,0.000001,0.000000,0.000001,1678344351.362568,9.530137,-0.066539,-0.013204,0.000001,0.000000,0.000000,0.000001,0.000000,0.000001,-86.703253,-101.050903,-0.552452,-0.407661,0.582515,174.239785,-0.435069,0.000001,0.000000,0.000000,0.000001,0.000000,0.000001,,,,,,,,,,,,,,,,,,,,,,,,,,,,,,,,,,,,,,,,,,,,,,,,,,,,,,,,,,,
1690309418.954268,0.001460,0.003197,0.001099,0.000001,0.000000,0.000000,0.000001,0.000000,0.000001,1678344351.370068,10.218503,-0.213604,-0.166763,0.000001,0.000000,0.000000,0.000001,0.000000,0.000001,-86.702052,-101.071996,-0.552380,-0.407744,0.582468,174.277058,-0.435146,0.000001,0.000000,0.000000,0.000001,0.000000,0.000001,,,,,,,,,,,,,,,,,,,,,,,,,,,,,,,,,,,,,,,,,,,,,,,,,,,,,,,,,,,
1690309418.957299,,,,,,,,,,,,,,,,,,,,,,,,,,,,,,,,,1678315296.839802,0.000200,0.000000,0.000000,0.000000,0.000000,0.000000,0.000200,0.000000,0.000000,0.000000,0.000000,0.000200,0.000000,0.000000,0.000000,0.000000,0.000000,0.000000,0.000000,0.000000,0.000000,0.000000,0.000000,1.000000,0.000000,0.000000,0.000000,0.000000,-0.007612,2.179052,0.032355,0.000000,0.000000,0.000000,0.000000,0.000000,0.000000,0.000000,0.000000,0.000000,0.000000,0.000000,0.000000,0.000000,0.000000,0.000000,0.000000,0.000000,0.000000,0.000000,0.000000,0.000000,0.000000,0.000000,0.000000,0.000000,0.000000,0.000000
1690309418.962471,0.000419,-0.006676,0.001151,0.000001,0.000000,0.000000,0.000001,0.000000,0.000001,1678344351.380068,10.061841,-0.051670,0.265335,0.000001,0.000000,0.000000,0.000001,0.000000,0.000001,-86.701441,-101.096223,-0.552293,-0.407853,0.582402,174.322045,-0.435242,0.000001,0.000000,0.000000,0.000001,0.000000,0.000001,,,,,,,,,,,,,,,,,,,,,,,,,,,,,,,,,,,,,,,,,,,,,,,,,,,,,,,,,,,
1690309418.971189,-0.001916,-0.005856,-0.002714,0.000001,0.000000,0.000000,0.000001,0.000000,0.000001,1678344351.387568,9.893510,-0.525596,-0.448279,0.000001,0.000000,0.000000,0.000001,0.000000,0.000001,-86.701744,-101.073237,-0.552244,-0.407923,0.582343,174.313690,-0.435318,0.000001,0.000000,0.000000,0.000001,0.000000,0.000001,,,,,,,,,,,,,,,,,,,,,,,,,,,,,,,,,,,,,,,,,,,,,,,,,,,,,,,,,,,
1690309418.980162,0.001552,-0.006565,-0.005043,0.000001,0.000000,0.000000,0.000001,0.000000,0.000001,1678344351.395068,9.513580,-0.382516,0.453484,0.000001,0.000000,0.000000,0.000001,0.000000,0.000001,-86.701767,-101.056828,-0.552188,-0.407999,0.582283,174.313029,-0.435398,0.000001,0.000000,0.000000,0.000001,0.000000,0.000001,,,,,,,,,,,,,,,,,,,,,,,,,,,,,,,,,,,,,,,,,,,,,,,,,,,,,,,,,,,
1690309418.988474,0.005513,0.023087,-0.007048,0.000001,0.000000,0.000000,0.000001,0.000000,0.000001,1678344351.402568,9.553607,-0.434790,-0.831428,0.000001,0.000000,0.000000,0.000001,0.000000,0.000001,-86.705222,-100.946588,-0.552165,-0.408072,0.582180,174.220023,-0.435496,0.000001,0.000000,0.000000,0.000001,0.000000,0.000001,,,,,,,,,,,,,,,,,,,,,,,,,,,,,,,,,,,,,,,,,,,,,,,,,,,,,,,,,,,
1690309418.997572,0.000096,-0.001466,0.004134,0.000001,0.000000,0.000000,0.000001,0.000000,0.000001,1678344351.412568,9.777063,-0.363213,-0.307357,0.000001,0.000000,0.000000,0.000001,0.000000,0.000001,-86.706644,-100.910077,-0.552103,-0.408173,0.582092,174.204042,-0.435598,0.000001,0.000000,0.000000,0.000001,0.000000,0.000001,,,,,,,,,,,,,,,,,,,,,,,,,,,,,,,,,,,,,,,,,,,,,,,,,,,,,,,,,,,
1690309419.006444,0.002316,-0.011283,0.007095,0.000001,0.000000,0.000000,0.000001,0.000000,0.000001,1678344351.420068,9.561443,0.101611,-0.075634,0.000001,0.000000,0.000000,0.000001,0.000000,0.000001,-86.704995,-100.956391,-0.552024,-0.408258,0.582054,174.266107,-0.435669,0.000001,0.000000,0.000000,0.000001,0.000000,0.000001,,,,,,,,,,,,,,,,,,,,,,,,,,,,,,,,,,,,,,,,,,,,,,,,,,,,,,,,,,,
1690309419.014939,0.002053,-0.009127,-0.000753,0.000001,0.000000,0.000000,0.000001,0.000000,0.000001,1678344351.427568,10.298111,-0.029353,0.080065,0.000001,0.000000,0.000000,0.000001,0.000000,0.000001,-86.705291,-101.049559,-0.551947,-0.408359,0.582023,174.374030,-0.435714,0.000001,0.000000,0.000000,0.000001,0.000000,0.000001,,,,,,,,,,,,,,,,,,,,,,,,,,,,,,,,,,,,,,,,,,,,,,,,,,,,,,,,,,,
1690309419.024245,0.002197,0.011946,0.011542,0.000001,0.000000,0.000000,0.000001,0.000000,0.000001,1678344351.437568,10.365985,-0.002683,0.055599,0.000001,0.000000,0.000000,0.000001,0.000000,0.000001,-86.701502,-100.966370,-0.551861,-0.408439,0.581937,174.314143,-0.435864,0.000001,0.000000,0.000000,0.000001,0.000000,0.000001,,,,,,,,,,,,,,,,,,,,,,,,,,,,,,,,,,,,,,,,,,,,,,,,,,,,,,,,,,,
1690309419.031927,-0.001478,-0.002977,0.005370,0.000001,0.000000,0.000000,0.000001,0.000000,0.000001,1678344351.445068,9.368864,-0.401717,-0.338602,0.000001,0.000000,0.000000,0.000001,0.000000,0.000001,-86.698177,-100.897651,-0.551806,-0.408480,0.581883,174.259889,-0.435965,0.000001,0.000000,0.000000,0.000001,0.000000,0.000001,,,,,,,,,,,,,,,,,,,,,,,,,,,,,,,,,,,,,,,,,,,,,,,,,,,,,,,,,,,
