__time,/odometry/filtered/header/stamp,/odometry/filtered/pose/covariance[0;0],/odometry/filtered/pose/covariance[0;1],/odometry/filtered/pose/covariance[0;2],/odometry/filtered/pose/covariance[0;3],/odometry/filtered/pose/covariance[0;4],/odometry/filtered/pose/covariance[0;5],/odometry/filtered/pose/covariance[1;1],/odometry/filtered/pose/covariance[1;2],/odometry/filtered/pose/covariance[1;3],/odometry/filtered/pose/covariance[1;4],/odometry/filtered/pose/covariance[1;5],/odometry/filtered/pose/covariance[2;2],/odometry/filtered/pose/covariance[2;3],/odometry/filtered/pose/covariance[2;4],/odometry/filtered/pose/covariance[2;5],/odometry/filtered/pose/covariance[3;3],/odometry/filtered/pose/covariance[3;4],/odometry/filtered/pose/covariance[3;5],/odometry/filtered/pose/covariance[4;4],/odometry/filtered/pose/covariance[4;5],/odometry/filtered/pose/covariance[5;5],/odometry/filtered/pose/pose/orientation/pitch_deg,/odometry/filtered/pose/pose/orientation/roll_deg,/odometry/filtered/pose/pose/orientation/w,/odometry/filtered/pose/pose/orientation/x,/odometry/filtered/pose/pose/orientation/y,/odometry/filtered/pose/pose/orientation/yaw_deg,/odometry/filtered/pose/pose/orientation/z,/odometry/filtered/pose/pose/position/x,/odometry/filtered/pose/pose/position/y,/odometry/filtered/pose/pose/position/z,/odometry/filtered/twist/covariance[0;0],/odometry/filtered/twist/covariance[0;1],/odometry/filtered/twist/covariance[0;2],/odometry/filtered/twist/covariance[0;3],/odometry/filtered/twist/covariance[0;4],/odometry/filtered/twist/covariance[0;5],/odometry/filtered/twist/covariance[1;1],/odometry/filtered/twist/covariance[1;2],/odometry/filtered/twist/covariance[1;3],/odometry/filtered/twist/covariance[1;4],/odometry/filtered/twist/covariance[1;5],/odometry/filtered/twist/covariance[2;2],/odometry/filtered/twist/covariance[2;3],/odometry/filtered/twist/covariance[2;4],/odometry/filtered/twist/covariance[2;5],/odometry/filtered/twist/covariance[3;3],/odometry/filtered/twist/covariance[3;4],/odometry/filtered/twist/covariance[3;5],/odometry/filtered/twist/covariance[4;4],/odometry/filtered/twist/covariance[4;5],/odometry/filtered/twist/covariance[5;5],/odometry/filtered/twist/twist/angular/x,/odometry/filtered/twist/twist/angular/y,/odometry/filtered/twist/twist/angular/z,/odometry/filtered/twist/twist/linear/x,/odometry/filtered/twist/twist/linear/y,/odometry/filtered/twist/twist/linear/z,/sys/integrator/wheel_odometry/header/stamp,/sys/integrator/wheel_odometry/pose/covariance[0;0],/sys/integrator/wheel_odometry/pose/covariance[0;1],/sys/integrator/wheel_odometry/pose/covariance[0;2],/sys/integrator/wheel_odometry/pose/covariance[0;3],/sys/integrator/wheel_odometry/pose/covariance[0;4],/sys/integrator/wheel_odometry/pose/covariance[0;5],/sys/integrator/wheel_odometry/pose/covariance[1;1],/sys/integrator/wheel_odometry/pose/covariance[1;2],/sys/integrator/wheel_odometry/pose/covariance[1;3],/sys/integrator/wheel_odometry/pose/covariance[1;4],/sys/integrator/wheel_odometry/pose/covariance[1;5],/sys/integrator/wheel_odometry/pose/covariance[2;2],/sys/integrator/wheel_odometry/pose/covariance[2;3],/sys/integrator/wheel_odometry/pose/covariance[2;4],/sys/integrator/wheel_odometry/pose/covariance[2;5],/sys/integrator/wheel_odometry/pose/covariance[3;3],/sys/integrator/wheel_odometry/pose/covariance[3;4],/sys/integrator/wheel_odometry/pose/covariance[3;5],/sys/integrator/wheel_odometry/pose/covariance[4;4],/sys/integrator/wheel_odometry/pose/covariance[4;5],/sys/integrator/wheel_odometry/pose/covariance[5;5],/sys/integrator/wheel_odometry/pose/pose/orientation/pitch_deg,/sys/integrator/wheel_odometry/pose/pose/orientation/roll_deg,/sys/integrator/wheel_odometry/pose/pose/orientation/w,/sys/integrator/wheel_odometry/pose/pose/orientation/x,/sys/integrator/wheel_odometry/pose/pose/orientation/y,/sys/integrator/wheel_odometry/pose/pose/orientation/yaw_deg,/sys/integrator/wheel_odometry/pose/pose/orientation/z,/sys/integrator/wheel_odometry/pose/pose/position/x,/sys/integrator/wheel_odometry/pose/pose/position/y,/sys/integrator/wheel_odometry/pose/pose/position/z,/sys/integrator/wheel_odometry/twist/covariance[0;0],/sys/integrator/wheel_odometry/twist/covariance[0;1],/sys/integrator/wheel_odometry/twist/covariance[0;2],/sys/integrator/wheel_odometry/twist/covariance[0;3],/sys/integrator/wheel_odometry/twist/covariance[0;4],/sys/integrator/wheel_odometry/twist/covariance[0;5],/sys/integrator/wheel_odometry/twist/covariance[1;1],/sys/integrator/wheel_odometry/twist/covariance[1;2],/sys/integrator/wheel_odometry/twist/covariance[1;3],/sys/integrator/wheel_odometry/twist/covariance[1;4],/sys/integrator/wheel_odometry/twist/covariance[1;5],/sys/integrator/wheel_odometry/twist/covariance[2;2],/sys/integrator/wheel_odometry/twist/covariance[2;3],/sys/integrator/wheel_odometry/twist/covariance[2;4],/sys/integrator/wheel_odometry/twist/covariance[2;5],/sys/integrator/wheel_odometry/twist/covariance[3;3],/sys/integrator/wheel_odometry/twist/covariance[3;4],/sys/integrator/wheel_odometry/twist/covariance[3;5],/sys/integrator/wheel_odometry/twist/covariance[4;4],/sys/integrator/wheel_odometry/twist/covariance[4;5],/sys/integrator/wheel_odometry/twist/covariance[5;5],/sys/integrator/wheel_odometry/twist/twist/angular/x,/sys/integrator/wheel_odometry/twist/twist/angular/y,/sys/integrator/wheel_odometry/twist/twist/angular/z,/sys/integrator/wheel_odometry/twist/twist/linear/x,/sys/integrator/wheel_odometry/twist/twist/linear/y,/sys/integrator/wheel_odometry/twist/twist/linear/z,/triangulation_3D_pose/header/stamp,/triangulation_3D_pose/pose/covariance[0;0],/triangulation_3D_pose/pose/covariance[0;1],/triangulation_3D_pose/pose/covariance[0;2],/triangulation_3D_pose/pose/covariance[0;3],/triangulation_3D_pose/pose/covariance[0;4],/triangulation_3D_pose/pose/covariance[0;5],/triangulation_3D_pose/pose/covariance[1;1],/triangulation_3D_pose/pose/covariance[1;2],/triangulation_3D_pose/pose/covariance[1;3],/triangulation_3D_pose/pose/covariance[1;4],/triangulation_3D_pose/pose/covariance[1;5],/triangulation_3D_pose/pose/covariance[2;2],/triangulation_3D_pose/pose/covariance[2;3],/triangulation_3D_pose/pose/covariance[2;4],/triangulation_3D_pose/pose/covariance[2;5],/triangulation_3D_pose/pose/covariance[3;3],/triangulation_3D_pose/pose/covariance[3;4],/triangulation_3D_pose/pose/covariance[3;5],/triangulation_3D_pose/pose/covariance[4;4],/triangulation_3D_pose/pose/covariance[4;5],/triangulation_3D_pose/pose/covariance[5;5],/triangulation_3D_pose/pose/pose/orientation/pitch_deg,/triangulation_3D_pose/pose/pose/orientation/roll_deg,/triangulation_3D_pose/pose/pose/orientation/w,/triangulation_3D_pose/pose/pose/orientation/x,/triangulation_3D_pose/pose/pose/orientation/y,/triangulation_3D_pose/pose/pose/orientation/yaw_deg,/triangulation_3D_pose/pose/pose/orientation/z,/triangulation_3D_pose/pose/pose/position/x,/triangulation_3D_pose/pose/pose/position/y,/triangulation_3D_pose/pose/pose/position/z,/triangulation_3D_pose/twist/covariance[0;0],/triangulation_3D_pose/twist/covariance[0;1],/triangulation_3D_pose/twist/covariance[0;2],/triangulation_3D_pose/twist/covariance[0;3],/triangulation_3D_pose/twist/covariance[0;4],/triangulation_3D_pose/twist/covariance[0;5],/triangulation_3D_pose/twist/covariance[1;1],/triangulation_3D_pose/twist/covariance[1;2],/triangulation_3D_pose/twist/covariance[1;3],/triangulation_3D_pose/twist/covariance[1;4],/triangulation_3D_pose/twist/covariance[1;5],/triangulation_3D_pose/twist/covariance[2;2],/triangulation_3D_pose/twist/covariance[2;3],/triangulation_3D_pose/twist/covariance[2;4],/triangulation_3D_pose/twist/covariance[2;5],/triangulation_3D_pose/twist/covariance[3;3],/triangulation_3D_pose/twist/covariance[3;4],/triangulation_3D_pose/twist/covariance[3;5],/triangulation_3D_pose/twist/covariance[4;4],/triangulation_3D_pose/twist/covariance[4;5],/triangulation_3D_pose/twist/covariance[5;5],/triangulation_3D_pose/twist/twist/angular/x,/triangulation_3D_pose/twist/twist/angular/y,/triangulation_3D_pose/twist/twist/angular/z,/triangulation_3D_pose/twist/twist/linear/x,/triangulation_3D_pose/twist/twist/linear/y,/triangulation_3D_pose/twist/twist/linear/z
1690401966.794764,,,,,,,,,,,,,,,,,,,,,,,,,,,,,,,,,,,,,,,,,,,,,,,,,,,,,,,,,,,,1678344377.845291,0.000200,0.000000,0.000000,0.000000,0.000000,0.000000,0.000200,0.000000,0.000000,0.000000,0.000000,0.000200,0.000000,0.000000,0.000000,0.000200,0.000000,0.000000,0.000200,0.000000,0.000200,0.000000,0.000000,0.999991,0.000000,0.000000,-0.497210,-0.004339,0.000000,6.651821,0.000000,0.000200,0.000000,0.000000,0.000000,0.000000,0.000000,0.000200,0.000000,0.000000,0.000000,0.000000,0.000200,0.000000,0.000000,0.000000,0.000200,0.000000,0.000000,0.000200,0.000000,0.000200,0.000000,0.000000,-0.046562,0.000000,0.163848,0.000000,,,,,,,,,,,,,,,,,,,,,,,,,,,,,,,,,,,,,,,,,,,,,,,,,,,,,,,,,,,
1690401966.837615,,,,,,,,,,,,,,,,,,,,,,,,,,,,,,,,,,,,,,,,,,,,,,,,,,,,,,,,,,,,1678344377.889266,0.000200,0.000000,0.000000,0.000000,0.000000,0.000000,0.000200,0.000000,0.000000,0.000000,0.000000,0.000200,0.000000,0.000000,0.000000,0.000200,0.000000,0.000000,0.000200,0.000000,0.000200,0.000000,0.000000,0.999939,0.000000,0.000000,-1.265625,-0.011044,0.000000,6.661640,0.000000,0.000200,0.000000,0.000000,0.000000,0.000000,0.000000,0.000200,0.000000,0.000000,0.000000,0.000000,0.000200,0.000000,0.000000,0.000000,0.000200,0.000000,0.000000,0.000200,0.000000,0.000200,0.000000,0.000000,-0.099095,0.000000,0.177055,0.000000,,,,,,,,,,,,,,,,,,,,,,,,,,,,,,,,,,,,,,,,,,,,,,,,,,,,,,,,,,,
1690401966.886513,,,,,,,,,,,,,,,,,,,,,,,,,,,,,,,,,,,,,,,,,,,,,,,,,,,,,,,,,,,,1678344377.935712,0.000200,0.000000,0.000000,0.000000,0.000000,0.000000,0.000200,0.000000,0.000000,0.000000,0.000000,0.000200,0.000000,0.000000,0.000000,0.000200,0.000000,0.000000,0.000200,0.000000,0.000200,0.000000,0.000000,0.999972,0.000000,0.000000,-0.858817,-0.007495,0.000000,6.666549,0.000000,0.000200,0.000000,0.000000,0.000000,0.000000,0.000000,0.000200,0.000000,0.000000,0.000000,0.000000,0.000200,0.000000,0.000000,0.000000,0.000200,0.000000,0.000000,0.000200,0.000000,0.000200,0.000000,0.000000,-0.052312,0.000000,0.166213,0.000000,,,,,,,,,,,,,,,,,,,,,,,,,,,,,,,,,,,,,,,,,,,,,,,,,,,,,,,,,,,
1690401966.921919,1690401966.920995,0.008103,-0.000069,-0.000034,-0.006131,0.000938,-0.001089,0.008003,0.000019,0.005619,-0.028910,0.000687,0.009425,0.004430,-0.004415,-0.010141,18.794492,6.838158,-16.709148,14.474453,-8.950458,25.064125,-31.243446,104.930063,0.386301,0.735592,0.262757,63.562706,0.490545,-0.000315,6.684522,0.002356,0.151549,0.067895,0.131398,-0.064624,0.026472,-0.008359,0.361831,-0.117956,-0.018968,-0.025786,-0.188661,0.527521,-0.146268,0.097675,0.148699,0.185717,0.025895,-0.021603,0.239342,0.013546,0.250811,0.142737,-0.046025,0.236282,0.152272,-0.085828,-0.064506,,,,,,,,,,,,,,,,,,,,,,,,,,,,,,,,,,,,,,,,,,,,,,,,,,,,,,,,,,,,,,,,,,,,,,,,,,,,,,,,,,,,,,,,,,,,,,,,,,,,,,,,,,,,,,,,,,,,,,
1690401966.930073,,,,,,,,,,,,,,,,,,,,,,,,,,,,,,,,,,,,,,,,,,,,,,,,,,,,,,,,,,,,1678344377.980201,0.000200,0.000000,0.000000,0.000000,0.000000,0.000000,0.000200,0.000000,0.000000,0.000000,0.000000,0.000200,0.000000,0.000000,0.000000,0.000200,0.000000,0.000000,0.000200,0.000000,0.000200,0.000000,0.000000,0.999910,0.000000,0.000000,-1.536830,-0.013411,0.000000,6.676368,0.000000,0.000200,0.000000,0.000000,0.000000,0.000000,0.000000,0.000200,0.000000,0.000000,0.000000,0.000000,0.000200,0.000000,0.000000,0.000000,0.000200,0.000000,0.000000,0.000200,0.000000,0.000200,0.000000,0.000000,-0.099101,0.000000,0.178792,0.000000,,,,,,,,,,,,,,,,,,,,,,,,,,,,,,,,,,,,,,,,,,,,,,,,,,,,,,,,,,,
1690401966.970876,,,,,,,,,,,,,,,,,,,,,,,,,,,,,,,,,,,,,,,,,,,,,,,,,,,,,,,,,,,,,,,,,,,,,,,,,,,,,,,,,,,,,,,,,,,,,,,,,,,,,,,,,,,,,,,,,,,,,,,1678315323.038505,0.000200,0.000000,0.000000,0.000000,0.000000,0.000000,0.000200,0.000000,0.000000,0.000000,0.000000,0.000200,0.000000,0.000000,0.000000,0.000000,0.000000,0.000000,0.000000,0.000000,0.000000,0.000000,0.000000,1.000000,0.000000,0.000000,0.000000,0.000000,-0.072534,6.692524,0.254465,0.000000,0.000000,0.000000,0.000000,0.000000,0.000000,0.000000,0.000000,0.000000,0.000000,0.000000,0.000000,0.000000,0.000000,0.000000,0.000000,0.000000,0.000000,0.000000,0.000000,0.000000,0.000000,0.000000,0.000000,0.000000,0.000000,0.000000
1690401966.974473,,,,,,,,,,,,,,,,,,,,,,,,,,,,,,,,,,,,,,,,,,,,,,,,,,,,,,,,,,,,1678344378.025119,0.000200,0.000000,0.000000,0.000000,0.000000,0.000000,0.000200,0.000000,0.000000,0.000000,0.000000,0.000200,0.000000,0.000000,0.000000,0.000200,0.000000,0.000000,0.000200,0.000000,0.000200,0.000000,0.000000,0.999893,0.000000,0.000000,-1.672433,-0.014594,0.000000,6.685836,0.000000,0.000200,0.000000,0.000000,0.000000,0.000000,0.000000,0.000200,0.000000,0.000000,0.000000,0.000000,0.000200,0.000000,0.000000,0.000000,0.000200,0.000000,0.000000,0.000200,0.000000,0.000200,0.000000,0.000000,-0.073871,0.000000,0.178004,0.000000,,,,,,,,,,,,,,,,,,,,,,,,,,,,,,,,,,,,,,,,,,,,,,,,,,,,,,,,,,,
1690401967.020757,,,,,,,,,,,,,,,,,,,,,,,,,,,,,,,,,,,,,,,,,,,,,,,,,,,,,,,,,,,,1678344378.070897,0.000200,0.000000,0.000000,0.000000,0.000000,0.000000,0.000200,0.000000,0.000000,0.000000,0.000000,0.000200,0.000000,0.000000,0.000000,0.000200,0.000000,0.000000,0.000200,0.000000,0.000200,0.000000,0.000000,0.999951,0.000000,0.000000,-1.130022,-0.009861,0.000000,6.690395,0.000000,0.000200,0.000000,0.000000,0.000000,0.000000,0.000000,0.000200,0.000000,0.000000,0.000000,0.000000,0.000200,0.000000,0.000000,0.000000,0.000200,0.000000,0.000000,0.000200,0.000000,0.000200,0.000000,0.000000,-0.040792,0.000000,0.165781,0.000000,,,,,,,,,,,,,,,,,,,,,,,,,,,,,,,,,,,,,,,,,,,,,,,,,,,,,,,,,,,
1690401967.054603,1690401967.054326,0.008105,-0.000069,-0.000037,-0.005368,0.001776,-0.004187,0.008007,0.000027,0.006316,-0.029983,0.000260,0.009429,0.004692,-0.007358,-0.009532,19.406417,6.997181,-17.470459,14.928564,-9.310464,26.052618,-32.764297,106.411747,0.372931,0.743849,0.255894,62.769081,0.492066,-0.000317,6.709075,0.002373,0.158258,0.077844,0.129942,-0.065631,0.028237,-0.014202,0.362681,-0.122371,-0.020447,-0.025032,-0.189603,0.538430,-0.144778,0.103065,0.153061,0.186757,0.025866,-0.022141,0.240345,0.013719,0.251540,0.142385,-0.045833,0.235640,0.151692,-0.092843,-0.064409,,,,,,,,,,,,,,,,,,,,,,,,,,,,,,,,,,,,,,,,,,,,,,,,,,,,,,,,,,,,,,,,,,,,,,,,,,,,,,,,,,,,,,,,,,,,,,,,,,,,,,,,,,,,,,,,,,,,,,
1690401967.065940,,,,,,,,,,,,,,,,,,,,,,,,,,,,,,,,,,,,,,,,,,,,,,,,,,,,,,,,,,,,1678344378.116383,0.000200,0.000000,0.000000,0.000000,0.000000,0.000000,0.000200,0.000000,0.000000,0.000000,0.000000,0.000200,0.000000,0.000000,0.000000,0.000200,0.000000,0.000000,0.000200,0.000000,0.000200,0.000000,0.000000,0.999893,0.000000,0.000000,-1.672433,-0.014594,0.000000,6.699161,0.000000,0.000200,0.000000,0.000000,0.000000,0.000000,0.000000,0.000200,0.000000,0.000000,0.000000,0.000000,0.000200,0.000000,0.000000,0.000000,0.000200,0.000000,0.000000,0.000200,0.000000,0.000200,0.000000,0.000000,-0.079760,0.000000,0.175537,0.000000,,,,,,,,,,,,,,,,,,,,,,,,,,,,,,,,,,,,,,,,,,,,,,,,,,,,,,,,,,,
1690401967.075897,,,,,,,,,,,,,,,,,,,,,,,,,,,,,,,,,,,,,,,,,,,,,,,,,,,,,,,,,,,,,,,,,,,,,,,,,,,,,,,,,,,,,,,,,,,,,,,,,,,,,,,,,,,,,,,,,,,,,,,1678315323.143789,0.000200,0.000000,0.000000,0.000000,0.000000,0.000000,0.000200,0.000000,0.000000,0.000000,0.000000,0.000200,0.000000,0.000000,0.000000,0.000000,0.000000,0.000000,0.000000,0.000000,0.000000,0.000000,0.000000,1.000000,0.000000,0.000000,0.000000,0.000000,-0.073479,6.708284,0.256044,0.000000,0.000000,0.000000,0.000000,0.000000,0.000000,0.000000,0.000000,0.000000,0.000000,0.000000,0.000000,0.000000,0.000000,0.000000,0.000000,0.000000,0.000000,0.000000,0.000000,0.000000,0.000000,0.000000,0.000000,0.000000,0.000000,0.000000
1690401967.111217,,,,,,,,,,,,,,,,,,,,,,,,,,,,,,,,,,,,,,,,,,,,,,,,,,,,,,,,,,,,1678344378.161342,0.000200,0.000000,0.000000,0.000000,0.000000,0.000000,0.000200,0.000000,0.000000,0.000000,0.000000,0.000200,0.000000,0.000000,0.000000,0.000200,0.000000,0.000000,0.000200,0.000000,0.000200,0.000000,0.000000,0.999955,0.000000,0.000000,-1.084821,-0.009467,0.000000,6.703720,0.000000,0.000200,0.000000,0.000000,0.000000,0.000000,0.000000,0.000200,0.000000,0.000000,0.000000,0.000000,0.000200,0.000000,0.000000,0.000000,0.000200,0.000000,0.000000,0.000200,0.000000,0.000200,0.000000,0.000000,-0.021396,0.000000,0.163410,0.000000,,,,,,,,,,,,,,,,,,,,,,,,,,,,,,,,,,,,,,,,,,,,,,,,,,,,,,,,,,,
1690401967.155157,,,,,,,,,,,,,,,,,,,,,,,,,,,,,,,,,,,,,,,,,,,,,,,,,,,,,,,,,,,,1678344378.206046,0.000200,0.000000,0.000000,0.000000,0.000000,0.000000,0.000200,0.000000,0.000000,0.000000,0.000000,0.000200,0.000000,0.000000,0.000000,0.000200,0.000000,0.000000,0.000200,0.000000,0.000200,0.000000,0.000000,0.999899,0.000000,0.000000,-1.627232,-0.014200,0.000000,6.712136,0.000000,0.000200,0.000000,0.000000,0.000000,0.000000,0.000000,0.000200,0.000000,0.000000,0.000000,0.000000,0.000200,0.000000,0.000000,0.000000,0.000200,0.000000,0.000000,0.000200,0.000000,0.000200,0.000000,0.000000,-0.033028,0.000000,0.160628,0.000000,,,,,,,,,,,,,,,,,,,,,,,,,,,,,,,,,,,,,,,,,,,,,,,,,,,,,,,,,,,
1690401967.155532,1690401967.154736,0.005896,-0.000037,-0.000024,-0.001198,0.001734,0.001646,0.005828,0.000002,0.004552,-0.018128,-0.001050,0.006900,0.005528,0.004436,-0.012740,19.860721,7.124202,-18.039491,15.241803,-9.586887,26.794101,-32.250376,107.182954,0.372950,0.747259,0.257930,62.158590,0.485782,-0.000188,6.719608,0.001842,0.162344,0.086318,0.128613,-0.066607,0.029871,-0.019566,0.358758,-0.125964,-0.021457,-0.024231,-0.189474,0.545262,-0.143396,0.107564,0.156940,0.187485,0.025831,-0.022742,0.240970,0.013892,0.251383,0.141435,-0.045722,0.231682,0.145975,-0.089132,-0.062470,,,,,,,,,,,,,,,,,,,,,,,,,,,,,,,,,,,,,,,,,,,,,,,,,,,,,,,,,,,,,,,,,,,,,,,,,,,,,,,,,,,,,,,,,,,,,,,,,,,,,,,,,,,,,,,,,,,,,,
1690401967.167659,,,,,,,,,,,,,,,,,,,,,,,,,,,,,,,,,,,,,,,,,,,,,,,,,,,,,,,,,,,,,,,,,,,,,,,,,,,,,,,,,,,,,,,,,,,,,,,,,,,,,,,,,,,,,,,,,,,,,,,1678315323.235601,0.000200,0.000000,0.000000,0.000000,0.000000,0.000000,0.000200,0.000000,0.000000,0.000000,0.000000,0.000200,0.000000,0.000000,0.000000,0.000000,0.000000,0.000000,0.000000,0.000000,0.000000,0.000000,0.000000,1.000000,0.000000,0.000000,0.000000,0.000000,-0.073777,6.723449,0.257680,0.000000,0.000000,0.000000,0.000000,0.000000,0.000000,0.000000,0.000000,0.000000,0.000000,0.000000,0.000000,0.000000,0.000000,0.000000,0.000000,0.000000,0.000000,0.000000,0.000000,0.000000,0.000000,0.000000,0.000000,0.000000,0.000000,0.000000
1690401967.203260,,,,,,,,,,,,,,,,,,,,,,,,,,,,,,,,,,,,,,,,,,,,,,,,,,,,,,,,,,,,1678344378.251733,0.000200,0.000000,0.000000,0.000000,0.000000,0.000000,0.000200,0.000000,0.000000,0.000000,0.000000,0.000200,0.000000,0.000000,0.000000,0.000200,0.000000,0.000000,0.000200,0.000000,0.000200,0.000000,0.000000,0.999888,0.000000,0.000000,-1.717634,-0.014989,0.000000,6.720903,0.000000,0.000200,0.000000,0.000000,0.000000,0.000000,0.000000,0.000200,0.000000,0.000000,0.000000,0.000000,0.000200,0.000000,0.000000,0.000000,0.000200,0.000000,0.000000,0.000200,0.000000,0.000200,0.000000,0.000000,-0.052407,0.000000,0.169967,0.000000,,,,,,,,,,,,,,,,,,,,,,,,,,,,,,,,,,,,,,,,,,,,,,,,,,,,,,,,,,,
1690401967.245536,,,,,,,,,,,,,,,,,,,,,,,,,,,,,,,,,,,,,,,,,,,,,,,,,,,,,,,,,,,,1678344378.296284,0.000200,0.000000,0.000000,0.000000,0.000000,0.000000,0.000200,0.000000,0.000000,0.000000,0.000000,0.000200,0.000000,0.000000,0.000000,0.000200,0.000000,0.000000,0.000200,0.000000,0.000200,0.000000,0.000000,0.999947,0.000000,0.000000,-1.175223,-0.010256,0.000000,6.725111,0.000000,0.000200,0.000000,0.000000,0.000000,0.000000,0.000000,0.000200,0.000000,0.000000,0.000000,0.000000,0.000200,0.000000,0.000000,0.000000,0.000200,0.000000,0.000000,0.000200,0.000000,0.000200,0.000000,0.000000,0.003877,0.000000,0.155941,0.000000,,,,,,,,,,,,,,,,,,,,,,,,,,,,,,,,,,,,,,,,,,,,,,,,,,,,,,,,,,,
1690401967.267530,,,,,,,,,,,,,,,,,,,,,,,,,,,,,,,,,,,,,,,,,,,,,,,,,,,,,,,,,,,,,,,,,,,,,,,,,,,,,,,,,,,,,,,,,,,,,,,,,,,,,,,,,,,,,,,,,,,,,,,1678315323.335102,0.000200,0.000000,0.000000,0.000000,0.000000,0.000000,0.000200,0.000000,0.000000,0.000000,0.000000,0.000200,0.000000,0.000000,0.000000,0.000000,0.000000,0.000000,0.000000,0.000000,0.000000,0.000000,0.000000,1.000000,0.000000,0.000000,0.000000,0.000000,-0.073812,6.753099,0.260629,0.000000,0.000000,0.000000,0.000000,0.000000,0.000000,0.000000,0.000000,0.000000,0.000000,0.000000,0.000000,0.000000,0.000000,0.000000,0.000000,0.000000,0.000000,0.000000,0.000000,0.000000,0.000000,0.000000,0.000000,0.000000,0.000000,0.000000
1690401967.287909,1690401967.287665,0.008065,-0.000063,-0.000044,-0.003792,0.000966,0.001865,0.007956,0.000009,0.006948,-0.026376,-0.001471,0.009395,0.006191,0.002554,-0.014461,20.493833,7.256984,-18.802865,15.767057,-9.937595,27.785476,-33.858047,108.698537,0.358843,0.755177,0.250637,61.352244,0.487975,-0.000263,6.743627,0.002337,0.171339,0.094888,0.127078,-0.067592,0.031333,-0.024255,0.362881,-0.129222,-0.023201,-0.023583,-0.190923,0.557129,-0.141934,0.111806,0.160674,0.188571,0.025919,-0.023018,0.242180,0.013988,0.253131,0.141132,-0.045512,0.231408,0.145235,-0.095914,-0.062169,,,,,,,,,,,,,,,,,,,,,,,,,,,,,,,,,,,,,,,,,,,,,,,,,,,,,,,,,,,,,,,,,,,,,,,,,,,,,,,,,,,,,,,,,,,,,,,,,,,,,,,,,,,,,,,,,,,,,,
1690401967.290733,,,,,,,,,,,,,,,,,,,,,,,,,,,,,,,,,,,,,,,,,,,,,,,,,,,,,,,,,,,,1678344378.340826,0.000200,0.000000,0.000000,0.000000,0.000000,0.000000,0.000200,0.000000,0.000000,0.000000,0.000000,0.000200,0.000000,0.000000,0.000000,0.000200,0.000000,0.000000,0.000200,0.000000,0.000200,0.000000,0.000000,0.999876,0.000000,0.000000,-1.808036,-0.015777,0.000000,6.733878,0.000000,0.000200,0.000000,0.000000,0.000000,0.000000,0.000000,0.000200,0.000000,0.000000,0.000000,0.000000,0.000200,0.000000,0.000000,0.000000,0.000200,0.000000,0.000000,0.000200,0.000000,0.000200,0.000000,0.000000,-0.040895,0.000000,0.166196,0.000000,,,,,,,,,,,,,,,,,,,,,,,,,,,,,,,,,,,,,,,,,,,,,,,,,,,,,,,,,,,
1690401967.335254,,,,,,,,,,,,,,,,,,,,,,,,,,,,,,,,,,,,,,,,,,,,,,,,,,,,,,,,,,,,1678344378.386050,0.000200,0.000000,0.000000,0.000000,0.000000,0.000000,0.000200,0.000000,0.000000,0.000000,0.000000,0.000200,0.000000,0.000000,0.000000,0.000200,0.000000,0.000000,0.000200,0.000000,0.000200,0.000000,0.000000,0.999856,0.000000,0.000000,-1.943638,-0.016961,0.000000,6.742995,0.000000,0.000200,0.000000,0.000000,0.000000,0.000000,0.000000,0.000200,0.000000,0.000000,0.000000,0.000000,0.000200,0.000000,0.000000,0.000000,0.000200,0.000000,0.000000,0.000200,0.000000,0.000200,0.000000,0.000000,-0.017495,0.000000,0.164167,0.000000,,,,,,,,,,,,,,,,,,,,,,,,,,,,,,,,,,,,,,,,,,,,,,,,,,,,,,,,,,,
1690401967.366605,,,,,,,,,,,,,,,,,,,,,,,,,,,,,,,,,,,,,,,,,,,,,,,,,,,,,,,,,,,,,,,,,,,,,,,,,,,,,,,,,,,,,,,,,,,,,,,,,,,,,,,,,,,,,,,,,,,,,,,1678315323.433629,0.000200,0.000000,0.000000,0.000000,0.000000,0.000000,0.000200,0.000000,0.000000,0.000000,0.000000,0.000200,0.000000,0.000000,0.000000,0.000000,0.000000,0.000000,0.000000,0.000000,0.000000,0.000000,0.000000,1.000000,0.000000,0.000000,0.000000,0.000000,-0.074092,6.768224,0.262021,0.000000,0.000000,0.000000,0.000000,0.000000,0.000000,0.000000,0.000000,0.000000,0.000000,0.000000,0.000000,0.000000,0.000000,0.000000,0.000000,0.000000,0.000000,0.000000,0.000000,0.000000,0.000000,0.000000,0.000000,0.000000,0.000000,0.000000
1690401967.381798,,,,,,,,,,,,,,,,,,,,,,,,,,,,,,,,,,,,,,,,,,,,,,,,,,,,,,,,,,,,1678344378.431485,0.000200,0.000000,0.000000,0.000000,0.000000,0.000000,0.000200,0.000000,0.000000,0.000000,0.000000,0.000200,0.000000,0.000000,0.000000,0.000200,0.000000,0.000000,0.000200,0.000000,0.000200,0.000000,0.000000,0.999842,0.000000,0.000000,-2.034040,-0.017749,0.000000,6.747554,0.000000,0.000200,0.000000,0.000000,0.000000,0.000000,0.000000,0.000200,0.000000,0.000000,0.000000,0.000000,0.000200,0.000000,0.000000,0.000000,0.000200,0.000000,0.000000,0.000200,0.000000,0.000200,0.000000,0.000000,-0.015531,0.000000,0.151877,0.000000,,,,,,,,,,,,,,,,,,,,,,,,,,,,,,,,,,,,,,,,,,,,,,,,,,,,,,,,,,,
1690401967.423444,1690401967.421043,0.008097,-0.000062,-0.000047,-0.004518,0.000395,0.002615,0.007989,0.000010,0.007715,-0.027308,-0.001778,0.009432,0.005582,0.002196,-0.013782,21.147660,7.387485,-19.582409,16.281875,-10.288483,28.794148,-35.046761,110.159289,0.347089,0.762219,0.245140,60.519433,0.488321,-0.000254,6.765872,0.002334,0.179430,0.104203,0.124997,-0.068702,0.033097,-0.029909,0.362278,-0.132408,-0.024811,-0.022687,-0.191491,0.566836,-0.140021,0.116418,0.164750,0.189602,0.025980,-0.023431,0.243334,0.014137,0.254346,0.140628,-0.045277,0.230237,0.142947,-0.100688,-0.061137,,,,,,,,,,,,,,,,,,,,,,,,,,,,,,,,,,,,,,,,,,,,,,,,,,,,,,,,,,,,,,,,,,,,,,,,,,,,,,,,,,,,,,,,,,,,,,,,,,,,,,,,,,,,,,,,,,,,,,
1690401967.426103,,,,,,,,,,,,,,,,,,,,,,,,,,,,,,,,,,,,,,,,,,,,,,,,,,,,,,,,,,,,1678344378.476334,0.000200,0.000000,0.000000,0.000000,0.000000,0.000000,0.000200,0.000000,0.000000,0.000000,0.000000,0.000200,0.000000,0.000000,0.000000,0.000200,0.000000,0.000000,0.000200,0.000000,0.000200,0.000000,0.000000,0.999813,0.000000,0.000000,-2.214844,-0.019327,0.000000,6.756671,0.000000,0.000200,0.000000,0.000000,0.000000,0.000000,0.000000,0.000200,0.000000,0.000000,0.000000,0.000000,0.000200,0.000000,0.000000,0.000000,0.000200,0.000000,0.000000,0.000200,0.000000,0.000200,0.000000,0.000000,-0.046699,0.000000,0.163468,0.000000,,,,,,,,,,,,,,,,,,,,,,,,,,,,,,,,,,,,,,,,,,,,,,,,,,,,,,,,,,,
1690401967.468646,,,,,,,,,,,,,,,,,,,,,,,,,,,,,,,,,,,,,,,,,,,,,,,,,,,,,,,,,,,,,,,,,,,,,,,,,,,,,,,,,,,,,,,,,,,,,,,,,,,,,,,,,,,,,,,,,,,,,,,1678315323.535770,0.000200,0.000000,0.000000,0.000000,0.000000,0.000000,0.000200,0.000000,0.000000,0.000000,0.000000,0.000200,0.000000,0.000000,0.000000,0.000000,0.000000,0.000000,0.000000,0.000000,0.000000,0.000000,0.000000,1.000000,0.000000,0.000000,0.000000,0.000000,-0.073946,6.782912,0.263348,0.000000,0.000000,0.000000,0.000000,0.000000,0.000000,0.000000,0.000000,0.000000,0.000000,0.000000,0.000000,0.000000,0.000000,0.000000,0.000000,0.000000,0.000000,0.000000,0.000000,0.000000,0.000000,0.000000,0.000000,0.000000,0.000000,0.000000
1690401967.472119,,,,,,,,,,,,,,,,,,,,,,,,,,,,,,,,,,,,,,,,,,,,,,,,,,,,,,,,,,,,1678344378.521739,0.000200,0.000000,0.000000,0.000000,0.000000,0.000000,0.000200,0.000000,0.000000,0.000000,0.000000,0.000200,0.000000,0.000000,0.000000,0.000200,0.000000,0.000000,0.000200,0.000000,0.000200,0.000000,0.000000,0.999876,0.000000,0.000000,-1.808036,-0.015777,0.000000,6.761230,0.000000,0.000200,0.000000,0.000000,0.000000,0.000000,0.000000,0.000200,0.000000,0.000000,0.000000,0.000000,0.000200,0.000000,0.000000,0.000000,0.000200,0.000000,0.000000,0.000200,0.000000,0.000200,0.000000,0.000000,-0.005839,0.000000,0.153120,0.000000,,,,,,,,,,,,,,,,,,,,,,,,,,,,,,,,,,,,,,,,,,,,,,,,,,,,,,,,,,,
1690401967.518628,,,,,,,,,,,,,,,,,,,,,,,,,,,,,,,,,,,,,,,,,,,,,,,,,,,,,,,,,,,,1678344378.566950,0.000200,0.000000,0.000000,0.000000,0.000000,0.000000,0.000200,0.000000,0.000000,0.000000,0.000000,0.000200,0.000000,0.000000,0.000000,0.000200,0.000000,0.000000,0.000200,0.000000,0.000200,0.000000,0.000000,0.999765,0.000000,0.000000,-2.486049,-0.021693,0.000000,6.770698,0.000000,0.000200,0.000000,0.000000,0.000000,0.000000,0.000000,0.000200,0.000000,0.000000,0.000000,0.000000,0.000200,0.000000,0.000000,0.000000,0.000200,0.000000,0.000000,0.000200,0.000000,0.000200,0.000000,0.000000,-0.060295,0.000000,0.165129,0.000000,,,,,,,,,,,,,,,,,,,,,,,,,,,,,,,,,,,,,,,,,,,,,,,,,,,,,,,,,,,
1690401967.554606,1690401967.554326,0.008090,-0.000060,-0.000051,-0.004908,-0.000301,0.004536,0.007981,0.000007,0.008444,-0.027208,-0.002414,0.009427,0.005307,0.003932,-0.014143,21.818266,7.506294,-20.371473,16.805735,-10.632782,29.811862,-36.018859,111.609769,0.336537,0.768856,0.240414,59.640964,0.487652,-0.000238,6.787168,0.002321,0.188078,0.113484,0.122546,-0.069787,0.034915,-0.035722,0.360945,-0.135416,-0.026306,-0.021727,-0.191748,0.576689,-0.137993,0.121028,0.168757,0.190635,0.026028,-0.023842,0.244487,0.014285,0.255475,0.140068,-0.045054,0.228689,0.140030,-0.104236,-0.059904,,,,,,,,,,,,,,,,,,,,,,,,,,,,,,,,,,,,,,,,,,,,,,,,,,,,,,,,,,,,,,,,,,,,,,,,,,,,,,,,,,,,,,,,,,,,,,,,,,,,,,,,,,,,,,,,,,,,,,
1690401967.560339,,,,,,,,,,,,,,,,,,,,,,,,,,,,,,,,,,,,,,,,,,,,,,,,,,,,,,,,,,,,1678344378.611052,0.000200,0.000000,0.000000,0.000000,0.000000,0.000000,0.000200,0.000000,0.000000,0.000000,0.000000,0.000200,0.000000,0.000000,0.000000,0.000200,0.000000,0.000000,0.000200,0.000000,0.000200,0.000000,0.000000,0.999720,0.000000,0.000000,-2.712054,-0.023665,0.000000,6.780166,0.000000,0.000200,0.000000,0.000000,0.000000,0.000000,0.000000,0.000200,0.000000,0.000000,0.000000,0.000000,0.000200,0.000000,0.000000,0.000000,0.000200,0.000000,0.000000,0.000200,0.000000,0.000200,0.000000,0.000000,-0.046749,0.000000,0.167972,0.000000,,,,,,,,,,,,,,,,,,,,,,,,,,,,,,,,,,,,,,,,,,,,,,,,,,,,,,,,,,,
1690401967.563653,,,,,,,,,,,,,,,,,,,,,,,,,,,,,,,,,,,,,,,,,,,,,,,,,,,,,,,,,,,,,,,,,,,,,,,,,,,,,,,,,,,,,,,,,,,,,,,,,,,,,,,,,,,,,,,,,,,,,,,1678315323.631546,0.000200,0.000000,0.000000,0.000000,0.000000,0.000000,0.000200,0.000000,0.000000,0.000000,0.000000,0.000200,0.000000,0.000000,0.000000,0.000000,0.000000,0.000000,0.000000,0.000000,0.000000,0.000000,0.000000,1.000000,0.000000,0.000000,0.000000,0.000000,-0.075718,6.799697,0.264729,0.000000,0.000000,0.000000,0.000000,0.000000,0.000000,0.000000,0.000000,0.000000,0.000000,0.000000,0.000000,0.000000,0.000000,0.000000,0.000000,0.000000,0.000000,0.000000,0.000000,0.000000,0.000000,0.000000,0.000000,0.000000,0.000000,0.000000
1690401967.604370,,,,,,,,,,,,,,,,,,,,,,,,,,,,,,,,,,,,,,,,,,,,,,,,,,,,,,,,,,,,1678344378.655765,0.000200,0.000000,0.000000,0.000000,0.000000,0.000000,0.000200,0.000000,0.000000,0.000000,0.000000,0.000200,0.000000,0.000000,0.000000,0.000200,0.000000,0.000000,0.000200,0.000000,0.000200,0.000000,0.000000,0.999701,0.000000,0.000000,-2.802455,-0.024454,0.000000,6.784724,0.000000,0.000200,0.000000,0.000000,0.000000,0.000000,0.000000,0.000200,0.000000,0.000000,0.000000,0.000000,0.000200,0.000000,0.000000,0.000000,0.000200,0.000000,0.000000,0.000200,0.000000,0.000200,0.000000,0.000000,-0.046862,0.000000,0.157962,0.000000,,,,,,,,,,,,,,,,,,,,,,,,,,,,,,,,,,,,,,,,,,,,,,,,,,,,,,,,,,,
1690401967.650746,,,,,,,,,,,,,,,,,,,,,,,,,,,,,,,,,,,,,,,,,,,,,,,,,,,,,,,,,,,,1678344378.701390,0.000200,0.000000,0.000000,0.000000,0.000000,0.000000,0.000200,0.000000,0.000000,0.000000,0.000000,0.000200,0.000000,0.000000,0.000000,0.000200,0.000000,0.000000,0.000200,0.000000,0.000200,0.000000,0.000000,0.999640,0.000000,0.000000,-3.073661,-0.026820,0.000000,6.794543,0.000000,0.000200,0.000000,0.000000,0.000000,0.000000,0.000000,0.000200,0.000000,0.000000,0.000000,0.000000,0.000200,0.000000,0.000000,0.000000,0.000200,0.000000,0.000000,0.000200,0.000000,0.000200,0.000000,0.000000,-0.081791,0.000000,0.171393,0.000000,,,,,,,,,,,,,,,,,,,,,,,,,,,,,,,,,,,,,,,,,,,,,,,,,,,,,,,,,,,
1690401967.687906,1690401967.687654,0.008094,-0.000059,-0.000053,-0.005935,-0.000437,0.003019,0.007993,0.000013,0.009799,-0.029372,-0.002898,0.009431,0.004772,0.000252,-0.012296,22.513820,7.604129,-21.172728,17.344881,-10.961170,30.834356,-37.437524,113.247543,0.322903,0.775970,0.233604,58.675871,0.488910,-0.000240,6.811056,0.002318,0.197131,0.122490,0.119732,-0.070847,0.036744,-0.041561,0.358871,-0.137948,-0.027765,-0.020695,-0.191738,0.585858,-0.135768,0.125419,0.172556,0.191665,0.026089,-0.024213,0.245660,0.014415,0.256654,0.139710,-0.044806,0.228136,0.138371,-0.110683,-0.058974,,,,,,,,,,,,,,,,,,,,,,,,,,,,,,,,,,,,,,,,,,,,,,,,,,,,,,,,,,,,,,,,,,,,,,,,,,,,,,,,,,,,,,,,,,,,,,,,,,,,,,,,,,,,,,,,,,,,,,
1690401967.695454,,,,,,,,,,,,,,,,,,,,,,,,,,,,,,,,,,,,,,,,,,,,,,,,,,,,,,,,,,,,1678344378.746335,0.000200,0.000000,0.000000,0.000000,0.000000,0.000000,0.000200,0.000000,0.000000,0.000000,0.000000,0.000200,0.000000,0.000000,0.000000,0.000200,0.000000,0.000000,0.000200,0.000000,0.000200,0.000000,0.000000,0.999711,0.000000,0.000000,-2.757254,-0.024059,0.000000,6.799453,0.000000,0.000200,0.000000,0.000000,0.000000,0.000000,0.000000,0.000200,0.000000,0.000000,0.000000,0.000000,0.000200,0.000000,0.000000,0.000000,0.000200,0.000000,0.000000,0.000200,0.000000,0.000200,0.000000,0.000000,-0.040855,0.000000,0.161710,0.000000,,,,,,,,,,,,,,,,,,,,,,,,,,,,,,,,,,,,,,,,,,,,,,,,,,,,,,,,,,,
1690401967.710801,,,,,,,,,,,,,,,,,,,,,,,,,,,,,,,,,,,,,,,,,,,,,,,,,,,,,,,,,,,,,,,,,,,,,,,,,,,,,,,,,,,,,,,,,,,,,,,,,,,,,,,,,,,,,,,,,,,,,,,1678315323.778607,0.000200,0.000000,0.000000,0.000000,0.000000,0.000000,0.000200,0.000000,0.000000,0.000000,0.000000,0.000200,0.000000,0.000000,0.000000,0.000000,0.000000,0.000000,0.000000,0.000000,0.000000,0.000000,0.000000,1.000000,0.000000,0.000000,0.000000,0.000000,-0.075845,6.814749,0.265979,0.000000,0.000000,0.000000,0.000000,0.000000,0.000000,0.000000,0.000000,0.000000,0.000000,0.000000,0.000000,0.000000,0.000000,0.000000,0.000000,0.000000,0.000000,0.000000,0.000000,0.000000,0.000000,0.000000,0.000000,0.000000,0.000000,0.000000
1690401967.740924,,,,,,,,,,,,,,,,,,,,,,,,,,,,,,,,,,,,,,,,,,,,,,,,,,,,,,,,,,,,1678344378.791411,0.000200,0.000000,0.000000,0.000000,0.000000,0.000000,0.000200,0.000000,0.000000,0.000000,0.000000,0.000200,0.000000,0.000000,0.000000,0.000200,0.000000,0.000000,0.000200,0.000000,0.000200,0.000000,0.000000,0.999539,0.000000,0.000000,-3.480469,-0.030368,0.000000,6.808921,0.000000,0.000200,0.000000,0.000000,0.000000,0.000000,0.000000,0.000200,0.000000,0.000000,0.000000,0.000000,0.000200,0.000000,0.000000,0.000000,0.000200,0.000000,0.000000,0.000200,0.000000,0.000200,0.000000,0.000000,-0.066170,0.000000,0.162634,0.000000,,,,,,,,,,,,,,,,,,,,,,,,,,,,,,,,,,,,,,,,,,,,,,,,,,,,,,,,,,,
1690401967.784842,,,,,,,,,,,,,,,,,,,,,,,,,,,,,,,,,,,,,,,,,,,,,,,,,,,,,,,,,,,,1678344378.836209,0.000200,0.000000,0.000000,0.000000,0.000000,0.000000,0.000200,0.000000,0.000000,0.000000,0.000000,0.000200,0.000000,0.000000,0.000000,0.000200,0.000000,0.000000,0.000200,0.000000,0.000200,0.000000,0.000000,0.999464,0.000000,0.000000,-3.751674,-0.032734,0.000000,6.818389,0.000000,0.000200,0.000000,0.000000,0.000000,0.000000,0.000000,0.000200,0.000000,0.000000,0.000000,0.000000,0.000200,0.000000,0.000000,0.000000,0.000200,0.000000,0.000000,0.000200,0.000000,0.000200,0.000000,0.000000,-0.074071,0.000000,0.175020,0.000000,,,,,,,,,,,,,,,,,,,,,,,,,,,,,,,,,,,,,,,,,,,,,,,,,,,,,,,,,,,
1690401967.813928,,,,,,,,,,,,,,,,,,,,,,,,,,,,,,,,,,,,,,,,,,,,,,,,,,,,,,,,,,,,,,,,,,,,,,,,,,,,,,,,,,,,,,,,,,,,,,,,,,,,,,,,,,,,,,,,,,,,,,,1678315323.881026,0.000200,0.000000,0.000000,0.000000,0.000000,0.000000,0.000200,0.000000,0.000000,0.000000,0.000000,0.000200,0.000000,0.000000,0.000000,0.000000,0.000000,0.000000,0.000000,0.000000,0.000000,0.000000,0.000000,1.000000,0.000000,0.000000,0.000000,0.000000,-0.076897,6.830830,0.267194,0.000000,0.000000,0.000000,0.000000,0.000000,0.000000,0.000000,0.000000,0.000000,0.000000,0.000000,0.000000,0.000000,0.000000,0.000000,0.000000,0.000000,0.000000,0.000000,0.000000,0.000000,0.000000,0.000000,0.000000,0.000000,0.000000,0.000000
1690401967.821201,1690401967.820988,0.008094,-0.000057,-0.000056,-0.005830,-0.000574,0.003179,0.007993,0.000014,0.010952,-0.029450,-0.003983,0.009434,0.005110,0.000622,-0.012811,23.224915,7.688604,-21.982115,17.884268,-11.281957,31.864119,-38.458412,114.834410,0.311653,0.782528,0.228236,57.654566,0.488294,-0.000231,6.833571,0.002315,0.207161,0.131697,0.116607,-0.071879,0.038694,-0.047685,0.356267,-0.140717,-0.028997,-0.019642,-0.191347,0.596688,-0.133566,0.130147,0.176511,0.192699,0.026101,-0.024650,0.246802,0.014566,0.257542,0.139243,-0.044599,0.226843,0.135868,-0.115007,-0.057893,,,,,,,,,,,,,,,,,,,,,,,,,,,,,,,,,,,,,,,,,,,,,,,,,,,,,,,,,,,,,,,,,,,,,,,,,,,,,,,,,,,,,,,,,,,,,,,,,,,,,,,,,,,,,,,,,,,,,,
1690401967.831438,,,,,,,,,,,,,,,,,,,,,,,,,,,,,,,,,,,,,,,,,,,,,,,,,,,,,,,,,,,,1678344378.881424,0.000200,0.000000,0.000000,0.000000,0.000000,0.000000,0.000200,0.000000,0.000000,0.000000,0.000000,0.000200,0.000000,0.000000,0.000000,0.000200,0.000000,0.000000,0.000200,0.000000,0.000200,0.000000,0.000000,0.999562,0.000000,0.000000,-3.390067,-0.029580,0.000000,6.823298,0.000000,0.000200,0.000000,0.000000,0.000000,0.000000,0.000000,0.000200,0.000000,0.000000,0.000000,0.000000,0.000200,0.000000,0.000000,0.000000,0.000200,0.000000,0.000000,0.000200,0.000000,0.000200,0.000000,0.000000,-0.050634,0.000000,0.164474,0.000000,,,,,,,,,,,,,,,,,,,,,,,,,,,,,,,,,,,,,,,,,,,,,,,,,,,,,,,,,,,
1690401967.874845,,,,,,,,,,,,,,,,,,,,,,,,,,,,,,,,,,,,,,,,,,,,,,,,,,,,,,,,,,,,1678344378.926045,0.000200,0.000000,0.000000,0.000000,0.000000,0.000000,0.000200,0.000000,0.000000,0.000000,0.000000,0.000200,0.000000,0.000000,0.000000,0.000200,0.000000,0.000000,0.000200,0.000000,0.000200,0.000000,0.000000,0.999342,0.000000,0.000000,-4.158482,-0.036282,0.000000,6.833117,0.000000,0.000200,0.000000,0.000000,0.000000,0.000000,0.000000,0.000200,0.000000,0.000000,0.000000,0.000000,0.000200,0.000000,0.000000,0.000000,0.000200,0.000000,0.000000,0.000200,0.000000,0.000200,0.000000,0.000000,-0.101465,0.000000,0.177804,0.000000,,,,,,,,,,,,,,,,,,,,,,,,,,,,,,,,,,,,,,,,,,,,,,,,,,,,,,,,,,,
1690401967.908624,,,,,,,,,,,,,,,,,,,,,,,,,,,,,,,,,,,,,,,,,,,,,,,,,,,,,,,,,,,,,,,,,,,,,,,,,,,,,,,,,,,,,,,,,,,,,,,,,,,,,,,,,,,,,,,,,,,,,,,1678315323.976330,0.000200,0.000000,0.000000,0.000000,0.000000,0.000000,0.000200,0.000000,0.000000,0.000000,0.000000,0.000200,0.000000,0.000000,0.000000,0.000000,0.000000,0.000000,0.000000,0.000000,0.000000,0.000000,0.000000,1.000000,0.000000,0.000000,0.000000,0.000000,-0.076339,6.845321,0.268169,0.000000,0.000000,0.000000,0.000000,0.000000,0.000000,0.000000,0.000000,0.000000,0.000000,0.000000,0.000000,0.000000,0.000000,0.000000,0.000000,0.000000,0.000000,0.000000,0.000000,0.000000,0.000000,0.000000,0.000000,0.000000,0.000000,0.000000
1690401967.919746,,,,,,,,,,,,,,,,,,,,,,,,,,,,,,,,,,,,,,,,,,,,,,,,,,,,,,,,,,,,1678344378.971014,0.000200,0.000000,0.000000,0.000000,0.000000,0.000000,0.000200,0.000000,0.000000,0.000000,0.000000,0.000200,0.000000,0.000000,0.000000,0.000200,0.000000,0.000000,0.000200,0.000000,0.000200,0.000000,0.000000,0.999425,0.000000,0.000000,-3.887277,-0.033916,0.000000,6.838026,0.000000,0.000200,0.000000,0.000000,0.000000,0.000000,0.000000,0.000200,0.000000,0.000000,0.000000,0.000000,0.000200,0.000000,0.000000,0.000000,0.000200,0.000000,0.000000,0.000200,0.000000,0.000200,0.000000,0.000000,-0.060525,0.000000,0.166628,0.000000,,,,,,,,,,,,,,,,,,,,,,,,,,,,,,,,,,,,,,,,,,,,,,,,,,,,,,,,,,,
1690401967.954484,1690401967.954324,0.008093,-0.000055,-0.000059,-0.005818,-0.000814,0.003398,0.007992,0.000014,0.012206,-0.029552,-0.005118,0.009437,0.005281,0.000794,-0.013084,23.952090,7.750988,-22.793670,18.435632,-11.586749,32.888431,-39.456905,116.454786,0.300372,0.788873,0.222850,56.594666,0.487641,-0.000224,6.856197,0.002312,0.217852,0.140731,0.113250,-0.072923,0.040683,-0.053853,0.353156,-0.143227,-0.030168,-0.018561,-0.190733,0.607659,-0.131262,0.134799,0.180427,0.193731,0.026119,-0.025087,0.247956,0.014715,0.258430,0.138777,-0.044390,0.225575,0.133317,-0.119285,-0.056729,,,,,,,,,,,,,,,,,,,,,,,,,,,,,,,,,,,,,,,,,,,,,,,,,,,,,,,,,,,,,,,,,,,,,,,,,,,,,,,,,,,,,,,,,,,,,,,,,,,,,,,,,,,,,,,,,,,,,,
1690401967.968249,,,,,,,,,,,,,,,,,,,,,,,,,,,,,,,,,,,,,,,,,,,,,,,,,,,,,,,,,,,,1678344379.018481,0.000200,0.000000,0.000000,0.000000,0.000000,0.000000,0.000200,0.000000,0.000000,0.000000,0.000000,0.000200,0.000000,0.000000,0.000000,0.000200,0.000000,0.000000,0.000200,0.000000,0.000200,0.000000,0.000000,0.999159,0.000000,0.000000,-4.700893,-0.041012,0.000000,6.847845,0.000000,0.000200,0.000000,0.000000,0.000000,0.000000,0.000000,0.000200,0.000000,0.000000,0.000000,0.000000,0.000200,0.000000,0.000000,0.000000,0.000200,0.000000,0.000000,0.000200,0.000000,0.000200,0.000000,0.000000,-0.085197,0.000000,0.166112,0.000000,,,,,,,,,,,,,,,,,,,,,,,,,,,,,,,,,,,,,,,,,,,,,,,,,,,,,,,,,,,
1690401968.010587,,,,,,,,,,,,,,,,,,,,,,,,,,,,,,,,,,,,,,,,,,,,,,,,,,,,,,,,,,,,1678344379.061804,0.000200,0.000000,0.000000,0.000000,0.000000,0.000000,0.000200,0.000000,0.000000,0.000000,0.000000,0.000200,0.000000,0.000000,0.000000,0.000200,0.000000,0.000000,0.000200,0.000000,0.000200,0.000000,0.000000,0.999007,0.000000,0.000000,-5.107701,-0.044558,0.000000,6.858014,0.000000,0.000200,0.000000,0.000000,0.000000,0.000000,0.000000,0.000200,0.000000,0.000000,0.000000,0.000000,0.000200,0.000000,0.000000,0.000000,0.000200,0.000000,0.000000,0.000200,0.000000,0.000200,0.000000,0.000000,-0.099089,0.000000,0.180499,0.000000,,,,,,,,,,,,,,,,,,,,,,,,,,,,,,,,,,,,,,,,,,,,,,,,,,,,,,,,,,,
1690401968.011948,,,,,,,,,,,,,,,,,,,,,,,,,,,,,,,,,,,,,,,,,,,,,,,,,,,,,,,,,,,,,,,,,,,,,,,,,,,,,,,,,,,,,,,,,,,,,,,,,,,,,,,,,,,,,,,,,,,,,,,1678315324.078046,0.000200,0.000000,0.000000,0.000000,0.000000,0.000000,0.000200,0.000000,0.000000,0.000000,0.000000,0.000200,0.000000,0.000000,0.000000,0.000000,0.000000,0.000000,0.000000,0.000000,0.000000,0.000000,0.000000,1.000000,0.000000,0.000000,0.000000,0.000000,-0.077222,6.861434,0.269349,0.000000,0.000000,0.000000,0.000000,0.000000,0.000000,0.000000,0.000000,0.000000,0.000000,0.000000,0.000000,0.000000,0.000000,0.000000,0.000000,0.000000,0.000000,0.000000,0.000000,0.000000,0.000000,0.000000,0.000000,0.000000,0.000000,0.000000
1690401968.054600,1690401968.054323,0.005867,-0.000030,-0.000035,-0.003522,-0.000560,0.003514,0.005807,0.000006,0.009451,-0.021190,-0.004289,0.006874,0.003771,0.002486,-0.010504,24.494729,7.792221,-23.391821,18.827500,-11.806792,33.639313,-39.826505,117.519925,0.294319,0.792938,0.220626,55.883220,0.485746,-0.000146,6.871356,0.001787,0.224631,0.147426,0.110234,-0.073807,0.042417,-0.059154,0.345437,-0.144354,-0.030913,-0.017480,-0.189228,0.612296,-0.129009,0.138280,0.183499,0.194429,0.026140,-0.025521,0.248785,0.014860,0.258648,0.138207,-0.044201,0.223801,0.130298,-0.120518,-0.055270,,,,,,,,,,,,,,,,,,,,,,,,,,,,,,,,,,,,,,,,,,,,,,,,,,,,,,,,,,,,,,,,,,,,,,,,,,,,,,,,,,,,,,,,,,,,,,,,,,,,,,,,,,,,,,,,,,,,,,
1690401968.057138,,,,,,,,,,,,,,,,,,,,,,,,,,,,,,,,,,,,,,,,,,,,,,,,,,,,,,,,,,,,1678344379.107308,0.000200,0.000000,0.000000,0.000000,0.000000,0.000000,0.000200,0.000000,0.000000,0.000000,0.000000,0.000200,0.000000,0.000000,0.000000,0.000200,0.000000,0.000000,0.000200,0.000000,0.000200,0.000000,0.000000,0.999126,0.000000,0.000000,-4.791294,-0.041800,0.000000,6.862923,0.000000,0.000200,0.000000,0.000000,0.000000,0.000000,0.000000,0.000200,0.000000,0.000000,0.000000,0.000000,0.000200,0.000000,0.000000,0.000000,0.000200,0.000000,0.000000,0.000200,0.000000,0.000200,0.000000,0.000000,-0.073853,0.000000,0.168458,0.000000,,,,,,,,,,,,,,,,,,,,,,,,,,,,,,,,,,,,,,,,,,,,,,,,,,,,,,,,,,,
1690401968.102501,,,,,,,,,,,,,,,,,,,,,,,,,,,,,,,,,,,,,,,,,,,,,,,,,,,,,,,,,,,,1678344379.152797,0.000200,0.000000,0.000000,0.000000,0.000000,0.000000,0.000200,0.000000,0.000000,0.000000,0.000000,0.000200,0.000000,0.000000,0.000000,0.000200,0.000000,0.000000,0.000200,0.000000,0.000200,0.000000,0.000000,0.998842,0.000000,0.000000,-5.514509,-0.048105,0.000000,6.872391,0.000000,0.000200,0.000000,0.000000,0.000000,0.000000,0.000000,0.000200,0.000000,0.000000,0.000000,0.000000,0.000200,0.000000,0.000000,0.000000,0.000200,0.000000,0.000000,0.000200,0.000000,0.000200,0.000000,0.000000,-0.118395,0.000000,0.179448,0.000000,,,,,,,,,,,,,,,,,,,,,,,,,,,,,,,,,,,,,,,,,,,,,,,,,,,,,,,,,,,
1690401968.147534,,,,,,,,,,,,,,,,,,,,,,,,,,,,,,,,,,,,,,,,,,,,,,,,,,,,,,,,,,,,1678344379.197773,0.000200,0.000000,0.000000,0.000000,0.000000,0.000000,0.000200,0.000000,0.000000,0.000000,0.000000,0.000200,0.000000,0.000000,0.000000,0.000200,0.000000,0.000000,0.000200,0.000000,0.000200,0.000000,0.000000,0.999024,0.000000,0.000000,-5.062500,-0.044164,0.000000,6.876950,0.000000,0.000200,0.000000,0.000000,0.000000,0.000000,0.000000,0.000200,0.000000,0.000000,0.000000,0.000000,0.000200,0.000000,0.000000,0.000000,0.000200,0.000000,0.000000,0.000200,0.000000,0.000200,0.000000,0.000000,-0.067949,0.000000,0.167412,0.000000,,,,,,,,,,,,,,,,,,,,,,,,,,,,,,,,,,,,,,,,,,,,,,,,,,,,,,,,,,,
1690401968.155813,,,,,,,,,,,,,,,,,,,,,,,,,,,,,,,,,,,,,,,,,,,,,,,,,,,,,,,,,,,,,,,,,,,,,,,,,,,,,,,,,,,,,,,,,,,,,,,,,,,,,,,,,,,,,,,,,,,,,,,1678315324.223448,0.000200,0.000000,0.000000,0.000000,0.000000,0.000000,0.000200,0.000000,0.000000,0.000000,0.000000,0.000200,0.000000,0.000000,0.000000,0.000000,0.000000,0.000000,0.000000,0.000000,0.000000,0.000000,0.000000,1.000000,0.000000,0.000000,0.000000,0.000000,-0.077221,6.876723,0.270234,0.000000,0.000000,0.000000,0.000000,0.000000,0.000000,0.000000,0.000000,0.000000,0.000000,0.000000,0.000000,0.000000,0.000000,0.000000,0.000000,0.000000,0.000000,0.000000,0.000000,0.000000,0.000000,0.000000,0.000000,0.000000,0.000000,0.000000
1690401968.187799,1690401968.187657,0.008089,-0.000050,-0.000063,-0.006606,-0.002009,0.004873,0.007991,0.000014,0.014703,-0.029929,-0.007217,0.009438,0.005016,0.001057,-0.012937,25.257601,7.792846,-24.206401,19.427735,-12.065521,34.647136,-41.099785,119.359228,0.280836,0.799425,0.213658,54.658483,0.486211,-0.000208,6.895533,0.002288,0.237824,0.155911,0.106759,-0.074766,0.044217,-0.064720,0.346383,-0.146715,-0.032115,-0.016554,-0.189194,0.626127,-0.126933,0.142534,0.187052,0.195535,0.026186,-0.025815,0.250004,0.014951,0.260074,0.137937,-0.044004,0.223305,0.128452,-0.126319,-0.054350,,,,,,,,,,,,,,,,,,,,,,,,,,,,,,,,,,,,,,,,,,,,,,,,,,,,,,,,,,,,,,,,,,,,,,,,,,,,,,,,,,,,,,,,,,,,,,,,,,,,,,,,,,,,,,,,,,,,,,
1690401968.191709,,,,,,,,,,,,,,,,,,,,,,,,,,,,,,,,,,,,,,,,,,,,,,,,,,,,,,,,,,,,1678344379.242914,0.000200,0.000000,0.000000,0.000000,0.000000,0.000000,0.000200,0.000000,0.000000,0.000000,0.000000,0.000200,0.000000,0.000000,0.000000,0.000200,0.000000,0.000000,0.000200,0.000000,0.000200,0.000000,0.000000,0.998726,0.000000,0.000000,-5.785714,-0.050468,0.000000,6.886418,0.000000,0.000200,0.000000,0.000000,0.000000,0.000000,0.000000,0.000200,0.000000,0.000000,0.000000,0.000000,0.000200,0.000000,0.000000,0.000000,0.000200,0.000000,0.000000,0.000200,0.000000,0.000200,0.000000,0.000000,-0.087289,0.000000,0.167270,0.000000,,,,,,,,,,,,,,,,,,,,,,,,,,,,,,,,,,,,,,,,,,,,,,,,,,,,,,,,,,,
1690401968.237414,,,,,,,,,,,,,,,,,,,,,,,,,,,,,,,,,,,,,,,,,,,,,,,,,,,,,,,,,,,,1678344379.287258,0.000200,0.000000,0.000000,0.000000,0.000000,0.000000,0.000200,0.000000,0.000000,0.000000,0.000000,0.000200,0.000000,0.000000,0.000000,0.000200,0.000000,0.000000,0.000200,0.000000,0.000200,0.000000,0.000000,0.998706,0.000000,0.000000,-5.830915,-0.050862,0.000000,6.895185,0.000000,0.000200,0.000000,0.000000,0.000000,0.000000,0.000000,0.000200,0.000000,0.000000,0.000000,0.000000,0.000200,0.000000,0.000000,0.000000,0.000200,0.000000,0.000000,0.000200,0.000000,0.000200,0.000000,0.000000,-0.104971,0.000000,0.177134,0.000000,,,,,,,,,,,,,,,,,,,,,,,,,,,,,,,,,,,,,,,,,,,,,,,,,,,,,,,,,,,
1690401968.253769,,,,,,,,,,,,,,,,,,,,,,,,,,,,,,,,,,,,,,,,,,,,,,,,,,,,,,,,,,,,,,,,,,,,,,,,,,,,,,,,,,,,,,,,,,,,,,,,,,,,,,,,,,,,,,,,,,,,,,,1678315324.321593,0.000200,0.000000,0.000000,0.000000,0.000000,0.000000,0.000200,0.000000,0.000000,0.000000,0.000000,0.000200,0.000000,0.000000,0.000000,0.000000,0.000000,0.000000,0.000000,0.000000,0.000000,0.000000,0.000000,1.000000,0.000000,0.000000,0.000000,0.000000,-0.077161,6.891976,0.271037,0.000000,0.000000,0.000000,0.000000,0.000000,0.000000,0.000000,0.000000,0.000000,0.000000,0.000000,0.000000,0.000000,0.000000,0.000000,0.000000,0.000000,0.000000,0.000000,0.000000,0.000000,0.000000,0.000000,0.000000,0.000000,0.000000,0.000000
1690401968.281345,,,,,,,,,,,,,,,,,,,,,,,,,,,,,,,,,,,,,,,,,,,,,,,,,,,,,,,,,,,,1678344379.332152,0.000200,0.000000,0.000000,0.000000,0.000000,0.000000,0.000200,0.000000,0.000000,0.000000,0.000000,0.000200,0.000000,0.000000,0.000000,0.000200,0.000000,0.000000,0.000200,0.000000,0.000200,0.000000,0.000000,0.998935,0.000000,0.000000,-5.288504,-0.046135,0.000000,6.899744,0.000000,0.000200,0.000000,0.000000,0.000000,0.000000,0.000000,0.000200,0.000000,0.000000,0.000000,0.000000,0.000200,0.000000,0.000000,0.000000,0.000200,0.000000,0.000000,0.000200,0.000000,0.000200,0.000000,0.000000,-0.048565,0.000000,0.164062,0.000000,,,,,,,,,,,,,,,,,,,,,,,,,,,,,,,,,,,,,,,,,,,,,,,,,,,,,,,,,,,
1690401968.321266,1690401968.320992,0.008089,-0.000048,-0.000066,-0.006712,-0.002219,0.004602,0.007992,0.000016,0.016423,-0.030239,-0.008698,0.009440,0.005198,0.000271,-0.012837,26.025181,7.774953,-25.010970,20.001947,-12.304490,35.633381,-42.065749,121.112776,0.269218,0.805318,0.208002,53.456912,0.485510,-0.000204,6.918686,0.002286,0.250264,0.164305,0.102627,-0.075751,0.046307,-0.071051,0.341835,-0.148367,-0.033055,-0.015377,-0.187906,0.637208,-0.124318,0.146991,0.190699,0.196556,0.026204,-0.026235,0.251179,0.015087,0.260901,0.137514,-0.043797,0.222186,0.125852,-0.130752,-0.053028,,,,,,,,,,,,,,,,,,,,,,,,,,,,,,,,,,,,,,,,,,,,,,,,,,,,,,,,,,,,,,,,,,,,,,,,,,,,,,,,,,,,,,,,,,,,,,,,,,,,,,,,,,,,,,,,,,,,,,
1690401968.328002,,,,,,,,,,,,,,,,,,,,,,,,,,,,,,,,,,,,,,,,,,,,,,,,,,,,,,,,,,,,1678344379.378041,0.000200,0.000000,0.000000,0.000000,0.000000,0.000000,0.000200,0.000000,0.000000,0.000000,0.000000,0.000200,0.000000,0.000000,0.000000,0.000200,0.000000,0.000000,0.000200,0.000000,0.000200,0.000000,0.000000,0.998706,0.000000,0.000000,-5.830915,-0.050862,0.000000,6.908510,0.000000,0.000200,0.000000,0.000000,0.000000,0.000000,0.000000,0.000200,0.000000,0.000000,0.000000,0.000000,0.000200,0.000000,0.000000,0.000000,0.000200,0.000000,0.000000,0.000200,0.000000,0.000200,0.000000,0.000000,-0.083343,0.000000,0.173169,0.000000,,,,,,,,,,,,,,,,,,,,,,,,,,,,,,,,,,,,,,,,,,,,,,,,,,,,,,,,,,,
1690401968.354618,,,,,,,,,,,,,,,,,,,,,,,,,,,,,,,,,,,,,,,,,,,,,,,,,,,,,,,,,,,,,,,,,,,,,,,,,,,,,,,,,,,,,,,,,,,,,,,,,,,,,,,,,,,,,,,,,,,,,,,1678315324.421743,0.000200,0.000000,0.000000,0.000000,0.000000,0.000000,0.000200,0.000000,0.000000,0.000000,0.000000,0.000200,0.000000,0.000000,0.000000,0.000000,0.000000,0.000000,0.000000,0.000000,0.000000,0.000000,0.000000,1.000000,0.000000,0.000000,0.000000,0.000000,-0.077704,6.907838,0.271867,0.000000,0.000000,0.000000,0.000000,0.000000,0.000000,0.000000,0.000000,0.000000,0.000000,0.000000,0.000000,0.000000,0.000000,0.000000,0.000000,0.000000,0.000000,0.000000,0.000000,0.000000,0.000000,0.000000,0.000000,0.000000,0.000000,0.000000
1690401968.373682,,,,,,,,,,,,,,,,,,,,,,,,,,,,,,,,,,,,,,,,,,,,,,,,,,,,,,,,,,,,1678344379.423496,0.000200,0.000000,0.000000,0.000000,0.000000,0.000000,0.000200,0.000000,0.000000,0.000000,0.000000,0.000200,0.000000,0.000000,0.000000,0.000200,0.000000,0.000000,0.000200,0.000000,0.000200,0.000000,0.000000,0.998726,0.000000,0.000000,-5.785714,-0.050468,0.000000,6.916926,0.000000,0.000200,0.000000,0.000000,0.000000,0.000000,0.000000,0.000200,0.000000,0.000000,0.000000,0.000000,0.000200,0.000000,0.000000,0.000000,0.000200,0.000000,0.000000,0.000200,0.000000,0.000200,0.000000,0.000000,-0.046748,0.000000,0.170566,0.000000,,,,,,,,,,,,,,,,,,,,,,,,,,,,,,,,,,,,,,,,,,,,,,,,,,,,,,,,,,,
1690401968.420439,,,,,,,,,,,,,,,,,,,,,,,,,,,,,,,,,,,,,,,,,,,,,,,,,,,,,,,,,,,,1678344379.467755,0.000200,0.000000,0.000000,0.000000,0.000000,0.000000,0.000200,0.000000,0.000000,0.000000,0.000000,0.000200,0.000000,0.000000,0.000000,0.000200,0.000000,0.000000,0.000200,0.000000,0.000200,0.000000,0.000000,0.998706,0.000000,0.000000,-5.830915,-0.050862,0.000000,6.921485,0.000000,0.000200,0.000000,0.000000,0.000000,0.000000,0.000000,0.000200,0.000000,0.000000,0.000000,0.000000,0.000200,0.000000,0.000000,0.000000,0.000200,0.000000,0.000000,0.000200,0.000000,0.000200,0.000000,0.000000,-0.031094,0.000000,0.156351,0.000000,,,,,,,,,,,,,,,,,,,,,,,,,,,,,,,,,,,,,,,,,,,,,,,,,,,,,,,,,,,
1690401968.452950,,,,,,,,,,,,,,,,,,,,,,,,,,,,,,,,,,,,,,,,,,,,,,,,,,,,,,,,,,,,,,,,,,,,,,,,,,,,,,,,,,,,,,,,,,,,,,,,,,,,,,,,,,,,,,,,,,,,,,,1678315324.520265,0.000200,0.000000,0.000000,0.000000,0.000000,0.000000,0.000200,0.000000,0.000000,0.000000,0.000000,0.000200,0.000000,0.000000,0.000000,0.000000,0.000000,0.000000,0.000000,0.000000,0.000000,0.000000,0.000000,1.000000,0.000000,0.000000,0.000000,0.000000,-0.077626,6.923153,0.272536,0.000000,0.000000,0.000000,0.000000,0.000000,0.000000,0.000000,0.000000,0.000000,0.000000,0.000000,0.000000,0.000000,0.000000,0.000000,0.000000,0.000000,0.000000,0.000000,0.000000,0.000000,0.000000,0.000000,0.000000,0.000000,0.000000,0.000000
1690401968.454515,1690401968.454325,0.008088,-0.000045,-0.000069,-0.006062,-0.002955,0.006079,0.007985,0.000012,0.017522,-0.028781,-0.010195,0.009443,0.004841,0.002547,-0.013460,26.802692,7.728892,-25.807566,20.579180,-12.519961,36.599954,-42.696768,122.735560,0.259809,0.810696,0.203690,52.298660,0.483510,-0.000193,6.940463,0.002279,0.263467,0.172488,0.098241,-0.076715,0.048449,-0.077458,0.336829,-0.149813,-0.033883,-0.014182,-0.186370,0.648770,-0.121640,0.151463,0.194327,0.197576,0.026215,-0.026668,0.252356,0.015226,0.261658,0.136969,-0.043621,0.220458,0.122757,-0.133168,-0.051645,,,,,,,,,,,,,,,,,,,,,,,,,,,,,,,,,,,,,,,,,,,,,,,,,,,,,,,,,,,,,,,,,,,,,,,,,,,,,,,,,,,,,,,,,,,,,,,,,,,,,,,,,,,,,,,,,,,,,,
1690401968.460573,,,,,,,,,,,,,,,,,,,,,,,,,,,,,,,,,,,,,,,,,,,,,,,,,,,,,,,,,,,,1678344379.511491,0.000200,0.000000,0.000000,0.000000,0.000000,0.000000,0.000200,0.000000,0.000000,0.000000,0.000000,0.000200,0.000000,0.000000,0.000000,0.000200,0.000000,0.000000,0.000200,0.000000,0.000200,0.000000,0.000000,0.998645,0.000000,0.000000,-5.966518,-0.052044,0.000000,6.930602,0.000000,0.000200,0.000000,0.000000,0.000000,0.000000,0.000000,0.000200,0.000000,0.000000,0.000000,0.000000,0.000200,0.000000,0.000000,0.000000,0.000200,0.000000,0.000000,0.000200,0.000000,0.000200,0.000000,0.000000,-0.050748,0.000000,0.167446,0.000000,,,,,,,,,,,,,,,,,,,,,,,,,,,,,,,,,,,,,,,,,,,,,,,,,,,,,,,,,,,
1690401968.506197,,,,,,,,,,,,,,,,,,,,,,,,,,,,,,,,,,,,,,,,,,,,,,,,,,,,,,,,,,,,1678344379.556577,0.000200,0.000000,0.000000,0.000000,0.000000,0.000000,0.000200,0.000000,0.000000,0.000000,0.000000,0.000200,0.000000,0.000000,0.000000,0.000200,0.000000,0.000000,0.000200,0.000000,0.000200,0.000000,0.000000,0.998842,0.000000,0.000000,-5.514509,-0.048105,0.000000,6.935161,0.000000,0.000200,0.000000,0.000000,0.000000,0.000000,0.000000,0.000200,0.000000,0.000000,0.000000,0.000000,0.000200,0.000000,0.000000,0.000000,0.000200,0.000000,0.000000,0.000200,0.000000,0.000200,0.000000,0.000000,0.000000,0.000000,0.155455,0.000000,,,,,,,,,,,,,,,,,,,,,,,,,,,,,,,,,,,,,,,,,,,,,,,,,,,,,,,,,,,
1690401968.550964,,,,,,,,,,,,,,,,,,,,,,,,,,,,,,,,,,,,,,,,,,,,,,,,,,,,,,,,,,,,1678344379.601617,0.000200,0.000000,0.000000,0.000000,0.000000,0.000000,0.000200,0.000000,0.000000,0.000000,0.000000,0.000200,0.000000,0.000000,0.000000,0.000200,0.000000,0.000000,0.000200,0.000000,0.000200,0.000000,0.000000,0.998561,0.000000,0.000000,-6.147321,-0.053620,0.000000,6.943928,0.000000,0.000200,0.000000,0.000000,0.000000,0.000000,0.000000,0.000200,0.000000,0.000000,0.000000,0.000000,0.000200,0.000000,0.000000,0.000000,0.000200,0.000000,0.000000,0.000200,0.000000,0.000200,0.000000,0.000000,-0.046884,0.000000,0.165850,0.000000,,,,,,,,,,,,,,,,,,,,,,,,,,,,,,,,,,,,,,,,,,,,,,,,,,,,,,,,,,,
1690401968.587972,1690401968.587659,0.008089,-0.000042,-0.000074,-0.005780,-0.004585,0.009371,0.007976,0.000006,0.018258,-0.026824,-0.011414,0.009447,0.003081,0.006009,-0.013175,27.594919,7.647630,-26.596471,21.168576,-12.704455,37.542485,-43.173037,124.269544,0.251414,0.815648,0.200115,51.199614,0.481107,-0.000179,6.961156,0.002263,0.277021,0.180261,0.093645,-0.077682,0.050566,-0.083842,0.331606,-0.150763,-0.034707,-0.012962,-0.184811,0.659269,-0.118809,0.155591,0.197729,0.198600,0.026261,-0.027051,0.253552,0.015345,0.262584,0.136346,-0.043441,0.218468,0.119276,-0.134326,-0.050070,,,,,,,,,,,,,,,,,,,,,,,,,,,,,,,,,,,,,,,,,,,,,,,,,,,,,,,,,,,,,,,,,,,,,,,,,,,,,,,,,,,,,,,,,,,,,,,,,,,,,,,,,,,,,,,,,,,,,,
1690401968.595832,,,,,,,,,,,,,,,,,,,,,,,,,,,,,,,,,,,,,,,,,,,,,,,,,,,,,,,,,,,,1678344379.647059,0.000200,0.000000,0.000000,0.000000,0.000000,0.000000,0.000200,0.000000,0.000000,0.000000,0.000000,0.000200,0.000000,0.000000,0.000000,0.000200,0.000000,0.000000,0.000200,0.000000,0.000200,0.000000,0.000000,0.998476,0.000000,0.000000,-6.328125,-0.055195,0.000000,6.950590,0.000000,0.000200,0.000000,0.000000,0.000000,0.000000,0.000000,0.000200,0.000000,0.000000,0.000000,0.000000,0.000200,0.000000,0.000000,0.000000,0.000200,0.000000,0.000000,0.000200,0.000000,0.000200,0.000000,0.000000,-0.023424,0.000000,0.158785,0.000000,,,,,,,,,,,,,,,,,,,,,,,,,,,,,,,,,,,,,,,,,,,,,,,,,,,,,,,,,,,
1690401968.603161,,,,,,,,,,,,,,,,,,,,,,,,,,,,,,,,,,,,,,,,,,,,,,,,,,,,,,,,,,,,,,,,,,,,,,,,,,,,,,,,,,,,,,,,,,,,,,,,,,,,,,,,,,,,,,,,,,,,,,,1678315324.670012,0.000200,0.000000,0.000000,0.000000,0.000000,0.000000,0.000200,0.000000,0.000000,0.000000,0.000000,0.000200,0.000000,0.000000,0.000000,0.000000,0.000000,0.000000,0.000000,0.000000,0.000000,0.000000,0.000000,1.000000,0.000000,0.000000,0.000000,0.000000,-0.078660,6.955098,0.273587,0.000000,0.000000,0.000000,0.000000,0.000000,0.000000,0.000000,0.000000,0.000000,0.000000,0.000000,0.000000,0.000000,0.000000,0.000000,0.000000,0.000000,0.000000,0.000000,0.000000,0.000000,0.000000,0.000000,0.000000,0.000000,0.000000,0.000000
1690401968.641869,,,,,,,,,,,,,,,,,,,,,,,,,,,,,,,,,,,,,,,,,,,,,,,,,,,,,,,,,,,,1678344379.692020,0.000200,0.000000,0.000000,0.000000,0.000000,0.000000,0.000200,0.000000,0.000000,0.000000,0.000000,0.000200,0.000000,0.000000,0.000000,0.000200,0.000000,0.000000,0.000200,0.000000,0.000200,0.000000,0.000000,0.998540,0.000000,0.000000,-6.192522,-0.054014,0.000000,6.953045,0.000000,0.000200,0.000000,0.000000,0.000000,0.000000,0.000000,0.000200,0.000000,0.000000,0.000000,0.000000,0.000200,0.000000,0.000000,0.000000,0.000200,0.000000,0.000000,0.000200,0.000000,0.000200,0.000000,0.000000,-0.015592,0.000000,0.142949,0.000000,,,,,,,,,,,,,,,,,,,,,,,,,,,,,,,,,,,,,,,,,,,,,,,,,,,,,,,,,,,
1690401968.685210,,,,,,,,,,,,,,,,,,,,,,,,,,,,,,,,,,,,,,,,,,,,,,,,,,,,,,,,,,,,1678344379.736396,0.000200,0.000000,0.000000,0.000000,0.000000,0.000000,0.000200,0.000000,0.000000,0.000000,0.000000,0.000200,0.000000,0.000000,0.000000,0.000200,0.000000,0.000000,0.000200,0.000000,0.000200,0.000000,0.000000,0.998365,0.000000,0.000000,-6.554129,-0.057164,0.000000,6.956902,0.000000,0.000200,0.000000,0.000000,0.000000,0.000000,0.000000,0.000200,0.000000,0.000000,0.000000,0.000000,0.000200,0.000000,0.000000,0.000000,0.000200,0.000000,0.000000,0.000200,0.000000,0.000200,0.000000,0.000000,-0.054644,0.000000,0.141397,0.000000,,,,,,,,,,,,,,,,,,,,,,,,,,,,,,,,,,,,,,,,,,,,,,,,,,,,,,,,,,,
1690401968.702282,,,,,,,,,,,,,,,,,,,,,,,,,,,,,,,,,,,,,,,,,,,,,,,,,,,,,,,,,,,,,,,,,,,,,,,,,,,,,,,,,,,,,,,,,,,,,,,,,,,,,,,,,,,,,,,,,,,,,,,1678315324.768283,0.000200,0.000000,0.000000,0.000000,0.000000,0.000000,0.000200,0.000000,0.000000,0.000000,0.000000,0.000200,0.000000,0.000000,0.000000,0.000000,0.000000,0.000000,0.000000,0.000000,0.000000,0.000000,0.000000,1.000000,0.000000,0.000000,0.000000,0.000000,-0.076893,6.968450,0.273698,0.000000,0.000000,0.000000,0.000000,0.000000,0.000000,0.000000,0.000000,0.000000,0.000000,0.000000,0.000000,0.000000,0.000000,0.000000,0.000000,0.000000,0.000000,0.000000,0.000000,0.000000,0.000000,0.000000,0.000000,0.000000,0.000000,0.000000
1690401968.721283,1690401968.720992,0.008103,-0.000038,-0.000088,-0.005319,-0.008948,0.019188,0.007954,-0.000008,0.016749,-0.021251,-0.011597,0.009464,-0.003202,0.016344,-0.011256,28.401488,7.546010,-27.384519,21.765161,-12.867680,38.472530,-42.991982,125.315722,0.247973,0.819445,0.199822,50.428735,0.476540,-0.000151,6.977284,0.002235,0.290542,0.187452,0.088763,-0.078603,0.052613,-0.090186,0.326115,-0.150987,-0.035531,-0.011681,-0.183244,0.667545,-0.115755,0.159147,0.200656,0.199631,0.026353,-0.027342,0.254748,0.015407,0.263715,0.135385,-0.043296,0.215125,0.114445,-0.130200,-0.048189,,,,,,,,,,,,,,,,,,,,,,,,,,,,,,,,,,,,,,,,,,,,,,,,,,,,,,,,,,,,,,,,,,,,,,,,,,,,,,,,,,,,,,,,,,,,,,,,,,,,,,,,,,,,,,,,,,,,,,
