__time,/odometry/filtered/header/stamp,/odometry/filtered/pose/covariance[0;0],/odometry/filtered/pose/covariance[0;1],/odometry/filtered/pose/covariance[0;2],/odometry/filtered/pose/covariance[0;3],/odometry/filtered/pose/covariance[0;4],/odometry/filtered/pose/covariance[0;5],/odometry/filtered/pose/covariance[1;1],/odometry/filtered/pose/covariance[1;2],/odometry/filtered/pose/covariance[1;3],/odometry/filtered/pose/covariance[1;4],/odometry/filtered/pose/covariance[1;5],/odometry/filtered/pose/covariance[2;2],/odometry/filtered/pose/covariance[2;3],/odometry/filtered/pose/covariance[2;4],/odometry/filtered/pose/covariance[2;5],/odometry/filtered/pose/covariance[3;3],/odometry/filtered/pose/covariance[3;4],/odometry/filtered/pose/covariance[3;5],/odometry/filtered/pose/covariance[4;4],/odometry/filtered/pose/covariance[4;5],/odometry/filtered/pose/covariance[5;5],/odometry/filtered/pose/pose/orientation/pitch_deg,/odometry/filtered/pose/pose/orientation/roll_deg,/odometry/filtered/pose/pose/orientation/w,/odometry/filtered/pose/pose/orientation/x,/odometry/filtered/pose/pose/orientation/y,/odometry/filtered/pose/pose/orientation/yaw_deg,/odometry/filtered/pose/pose/orientation/z,/odometry/filtered/pose/pose/position/x,/odometry/filtered/pose/pose/position/y,/odometry/filtered/pose/pose/position/z,/odometry/filtered/twist/covariance[0;0],/odometry/filtered/twist/covariance[0;1],/odometry/filtered/twist/covariance[0;2],/odometry/filtered/twist/covariance[0;3],/odometry/filtered/twist/covariance[0;4],/odometry/filtered/twist/covariance[0;5],/odometry/filtered/twist/covariance[1;1],/odometry/filtered/twist/covariance[1;2],/odometry/filtered/twist/covariance[1;3],/odometry/filtered/twist/covariance[1;4],/odometry/filtered/twist/covariance[1;5],/odometry/filtered/twist/covariance[2;2],/odometry/filtered/twist/covariance[2;3],/odometry/filtered/twist/covariance[2;4],/odometry/filtered/twist/covariance[2;5],/odometry/filtered/twist/covariance[3;3],/odometry/filtered/twist/covariance[3;4],/odometry/filtered/twist/covariance[3;5],/odometry/filtered/twist/covariance[4;4],/odometry/filtered/twist/covariance[4;5],/odometry/filtered/twist/covariance[5;5],/odometry/filtered/twist/twist/angular/x,/odometry/filtered/twist/twist/angular/y,/odometry/filtered/twist/twist/angular/z,/odometry/filtered/twist/twist/linear/x,/odometry/filtered/twist/twist/linear/y,/odometry/filtered/twist/twist/linear/z,/sys/integrator/wheel_odometry/header/stamp,/sys/integrator/wheel_odometry/pose/covariance[0;0],/sys/integrator/wheel_odometry/pose/covariance[0;1],/sys/integrator/wheel_odometry/pose/covariance[0;2],/sys/integrator/wheel_odometry/pose/covariance[0;3],/sys/integrator/wheel_odometry/pose/covariance[0;4],/sys/integrator/wheel_odometry/pose/covariance[0;5],/sys/integrator/wheel_odometry/pose/covariance[1;1],/sys/integrator/wheel_odometry/pose/covariance[1;2],/sys/integrator/wheel_odometry/pose/covariance[1;3],/sys/integrator/wheel_odometry/pose/covariance[1;4],/sys/integrator/wheel_odometry/pose/covariance[1;5],/sys/integrator/wheel_odometry/pose/covariance[2;2],/sys/integrator/wheel_odometry/pose/covariance[2;3],/sys/integrator/wheel_odometry/pose/covariance[2;4],/sys/integrator/wheel_odometry/pose/covariance[2;5],/sys/integrator/wheel_odometry/pose/covariance[3;3],/sys/integrator/wheel_odometry/pose/covariance[3;4],/sys/integrator/wheel_odometry/pose/covariance[3;5],/sys/integrator/wheel_odometry/pose/covariance[4;4],/sys/integrator/wheel_odometry/pose/covariance[4;5],/sys/integrator/wheel_odometry/pose/covariance[5;5],/sys/integrator/wheel_odometry/pose/pose/orientation/pitch_deg,/sys/integrator/wheel_odometry/pose/pose/orientation/roll_deg,/sys/integrator/wheel_odometry/pose/pose/orientation/w,/sys/integrator/wheel_odometry/pose/pose/orientation/x,/sys/integrator/wheel_odometry/pose/pose/orientation/y,/sys/integrator/wheel_odometry/pose/pose/orientation/yaw_deg,/sys/integrator/wheel_odometry/pose/pose/orientation/z,/sys/integrator/wheel_odometry/pose/pose/position/x,/sys/integrator/wheel_odometry/pose/pose/position/y,/sys/integrator/wheel_odometry/pose/pose/position/z,/sys/integrator/wheel_odometry/twist/covariance[0;0],/sys/integrator/wheel_odometry/twist/covariance[0;1],/sys/integrator/wheel_odometry/twist/covariance[0;2],/sys/integrator/wheel_odometry/twist/covariance[0;3],/sys/integrator/wheel_odometry/twist/covariance[0;4],/sys/integrator/wheel_odometry/twist/covariance[0;5],/sys/integrator/wheel_odometry/twist/covariance[1;1],/sys/integrator/wheel_odometry/twist/covariance[1;2],/sys/integrator/wheel_odometry/twist/covariance[1;3],/sys/integrator/wheel_odometry/twist/covariance[1;4],/sys/integrator/wheel_odometry/twist/covariance[1;5],/sys/integrator/wheel_odometry/twist/covariance[2;2],/sys/integrator/wheel_odometry/twist/covariance[2;3],/sys/integrator/wheel_odometry/twist/covariance[2;4],/sys/integrator/wheel_odometry/twist/covariance[2;5],/sys/integrator/wheel_odometry/twist/covariance[3;3],/sys/integrator/wheel_odometry/twist/covariance[3;4],/sys/integrator/wheel_odometry/twist/covariance[3;5],/sys/integrator/wheel_odometry/twist/covariance[4;4],/sys/integrator/wheel_odometry/twist/covariance[4;5],/sys/integrator/wheel_odometry/twist/covariance[5;5],/sys/integrator/wheel_odometry/twist/twist/angular/x,/sys/integrator/wheel_odometry/twist/twist/angular/y,/sys/integrator/wheel_odometry/twist/twist/angular/z,/sys/integrator/wheel_odometry/twist/twist/linear/x,/sys/integrator/wheel_odometry/twist/twist/linear/y,/sys/integrator/wheel_odometry/twist/twist/linear/z,/triangulation_3D_pose/header/stamp,/triangulation_3D_pose/pose/covariance[0;0],/triangulation_3D_pose/pose/covariance[0;1],/triangulation_3D_pose/pose/covariance[0;2],/triangulation_3D_pose/pose/covariance[0;3],/triangulation_3D_pose/pose/covariance[0;4],/triangulation_3D_pose/pose/covariance[0;5],/triangulation_3D_pose/pose/covariance[1;1],/triangulation_3D_pose/pose/covariance[1;2],/triangulation_3D_pose/pose/covariance[1;3],/triangulation_3D_pose/pose/covariance[1;4],/triangulation_3D_pose/pose/covariance[1;5],/triangulation_3D_pose/pose/covariance[2;2],/triangulation_3D_pose/pose/covariance[2;3],/triangulation_3D_pose/pose/covariance[2;4],/triangulation_3D_pose/pose/covariance[2;5],/triangulation_3D_pose/pose/covariance[3;3],/triangulation_3D_pose/pose/covariance[3;4],/triangulation_3D_pose/pose/covariance[3;5],/triangulation_3D_pose/pose/covariance[4;4],/triangulation_3D_pose/pose/covariance[4;5],/triangulation_3D_pose/pose/covariance[5;5],/triangulation_3D_pose/pose/pose/orientation/pitch_deg,/triangulation_3D_pose/pose/pose/orientation/roll_deg,/triangulation_3D_pose/pose/pose/orientation/w,/triangulation_3D_pose/pose/pose/orientation/x,/triangulation_3D_pose/pose/pose/orientation/y,/triangulation_3D_pose/pose/pose/orientation/yaw_deg,/triangulation_3D_pose/pose/pose/orientation/z,/triangulation_3D_pose/pose/pose/position/x,/triangulation_3D_pose/pose/pose/position/y,/triangulation_3D_pose/pose/pose/position/z,/triangulation_3D_pose/twist/covariance[0;0],/triangulation_3D_pose/twist/covariance[0;1],/triangulation_3D_pose/twist/covariance[0;2],/triangulation_3D_pose/twist/covariance[0;3],/triangulation_3D_pose/twist/covariance[0;4],/triangulation_3D_pose/twist/covariance[0;5],/triangulation_3D_pose/twist/covariance[1;1],/triangulation_3D_pose/twist/covariance[1;2],/triangulation_3D_pose/twist/covariance[1;3],/triangulation_3D_pose/twist/covariance[1;4],/triangulation_3D_pose/twist/covariance[1;5],/triangulation_3D_pose/twist/covariance[2;2],/triangulation_3D_pose/twist/covariance[2;3],/triangulation_3D_pose/twist/covariance[2;4],/triangulation_3D_pose/twist/covariance[2;5],/triangulation_3D_pose/twist/covariance[3;3],/triangulation_3D_pose/twist/covariance[3;4],/triangulation_3D_pose/twist/covariance[3;5],/triangulation_3D_pose/twist/covariance[4;4],/triangulation_3D_pose/twist/covariance[4;5],/triangulation_3D_pose/twist/covariance[5;5],/triangulation_3D_pose/twist/twist/angular/x,/triangulation_3D_pose/twist/twist/angular/y,/triangulation_3D_pose/twist/twist/angular/z,/triangulation_3D_pose/twist/twist/linear/x,/triangulation_3D_pose/twist/twist/linear/y,/triangulation_3D_pose/twist/twist/linear/z
1690401984.955153,1690401984.954322,0.007814,0.000078,0.000038,-0.010358,-0.022424,0.003793,0.007816,0.000018,0.024316,0.019997,0.016634,0.009161,-0.024178,-0.002788,-0.016999,49.081801,7.322233,38.935898,35.007961,1.822146,53.203159,39.668478,-72.644449,0.784095,-0.467614,0.408080,-29.953458,-0.001713,-0.000464,9.341251,0.000920,0.965337,0.414076,0.257950,0.218731,-0.233802,0.093062,0.900878,-0.315907,0.198061,0.112863,0.295580,0.456888,0.000247,-0.224156,-0.140507,0.292038,0.037125,-0.067623,0.342451,0.011542,0.347868,0.100081,-0.034901,0.139740,-0.079142,0.097877,0.134410,,,,,,,,,,,,,,,,,,,,,,,,,,,,,,,,,,,,,,,,,,,,,,,,,,,,,,,,,,,,,,,,,,,,,,,,,,,,,,,,,,,,,,,,,,,,,,,,,,,,,,,,,,,,,,,,,,,,,,
1690401985.087903,1690401985.087656,0.008026,0.000078,0.000037,-0.008652,-0.022129,-0.003760,0.008052,0.000024,0.037234,0.026935,0.027481,0.009405,-0.012246,0.000593,-0.009162,51.179240,7.658915,40.958737,35.306335,2.089555,55.414510,40.693236,-71.114674,0.789102,-0.457151,0.410251,-28.970021,0.004975,-0.000453,9.367059,0.000924,0.993488,0.423613,0.252040,0.220446,-0.238941,0.100745,0.894497,-0.325638,0.199119,0.113418,0.294161,0.464572,-0.005314,-0.227892,-0.141539,0.293045,0.037179,-0.067637,0.343692,0.011593,0.349211,0.100343,-0.034888,0.139737,-0.077051,0.103232,0.135583,,,,,,,,,,,,,,,,,,,,,,,,,,,,,,,,,,,,,,,,,,,,,,,,,,,,,,,,,,,,,,,,,,,,,,,,,,,,,,,,,,,,,,,,,,,,,,,,,,,,,,,,,,,,,,,,,,,,,,
1690401985.189434,1690401985.188569,0.005890,0.000045,0.000022,-0.007885,-0.016684,-0.001062,0.005897,0.000014,0.025036,0.018144,0.018294,0.006925,-0.013320,0.000196,-0.009855,52.756093,7.842674,42.484082,35.464086,2.221004,57.106172,40.879882,-70.725952,0.790413,-0.454466,0.410700,-28.796194,0.005754,-0.000343,9.383419,0.000728,1.015127,0.428711,0.246358,0.221698,-0.243147,0.106596,0.883216,-0.335635,0.199318,0.114904,0.291811,0.469025,-0.010658,-0.231300,-0.142972,0.293520,0.037249,-0.067875,0.344586,0.011976,0.349772,0.099846,-0.034646,0.138897,-0.075595,0.103492,0.133892,,,,,,,,,,,,,,,,,,,,,,,,,,,,,,,,,,,,,,,,,,,,,,,,,,,,,,,,,,,,,,,,,,,,,,,,,,,,,,,,,,,,,,,,,,,,,,,,,,,,,,,,,,,,,,,,,,,,,,
1690401985.321850,1690401985.320990,0.007962,0.000075,0.000038,-0.008935,-0.022827,-0.002885,0.007983,0.000025,0.039138,0.026573,0.029232,0.009332,-0.014090,0.000943,-0.010705,55.053297,8.186917,44.677594,35.759197,2.475190,59.491630,41.686558,-69.461438,0.794282,-0.445882,0.412538,-27.998700,0.010892,-0.000450,9.407762,0.000879,1.048246,0.438100,0.240383,0.223624,-0.248261,0.113614,0.882084,-0.347538,0.200484,0.116146,0.290908,0.481892,-0.016228,-0.235503,-0.144730,0.294513,0.037305,-0.067980,0.345843,0.012168,0.351325,0.099836,-0.034567,0.138654,-0.073681,0.107189,0.133812,,,,,,,,,,,,,,,,,,,,,,,,,,,,,,,,,,,,,,,,,,,,,,,,,,,,,,,,,,,,,,,,,,,,,,,,,,,,,,,,,,,,,,,,,,,,,,,,,,,,,,,,,,,,,,,,,,,,,,
1690401985.454617,1690401985.454322,0.008025,0.000075,0.000039,-0.009103,-0.022985,-0.004501,0.008050,0.000028,0.042700,0.027634,0.032382,0.009405,-0.012141,0.001975,-0.009514,57.416251,8.485742,46.942491,35.995231,2.692869,61.962637,42.341817,-68.352031,0.797565,-0.438477,0.414008,-27.311468,0.015001,-0.000448,9.431735,0.000869,1.080707,0.445479,0.233054,0.225290,-0.253580,0.120956,0.874275,-0.360189,0.201055,0.117808,0.288722,0.492843,-0.022644,-0.239862,-0.146553,0.295314,0.037383,-0.068204,0.347078,0.012513,0.352473,0.099681,-0.034428,0.138192,-0.071709,0.110097,0.133272,,,,,,,,,,,,,,,,,,,,,,,,,,,,,,,,,,,,,,,,,,,,,,,,,,,,,,,,,,,,,,,,,,,,,,,,,,,,,,,,,,,,,,,,,,,,,,,,,,,,,,,,,,,,,,,,,,,,,,
1690401985.587874,1690401985.587655,0.008036,0.000079,0.000044,-0.013080,-0.024898,0.004844,0.008022,0.000027,0.025635,0.018370,0.017822,0.009419,-0.030761,0.001103,-0.023029,59.829144,8.746509,49.267367,36.226554,2.877722,64.513708,42.286144,-68.351686,0.797667,-0.438088,0.414271,-27.469305,0.013619,-0.000472,9.451699,0.000843,1.114226,0.452083,0.225245,0.226888,-0.258919,0.128252,0.865821,-0.373266,0.201465,0.119664,0.286291,0.504610,-0.029254,-0.244301,-0.148481,0.296068,0.037464,-0.068473,0.348299,0.012908,0.353561,0.098663,-0.034042,0.136725,-0.070641,0.108044,0.129902,,,,,,,,,,,,,,,,,,,,,,,,,,,,,,,,,,,,,,,,,,,,,,,,,,,,,,,,,,,,,,,,,,,,,,,,,,,,,,,,,,,,,,,,,,,,,,,,,,,,,,,,,,,,,,,,,,,,,,
1690401985.721672,1690401985.720994,0.008037,0.000078,0.000047,-0.011036,-0.024988,0.007585,0.008026,0.000023,0.030884,0.020253,0.022792,0.009422,-0.033045,-0.002164,-0.024541,62.425512,9.085536,51.783616,36.488084,3.165366,67.234492,42.835025,-67.254051,0.800910,-0.431314,0.414972,-26.725227,0.017596,-0.000473,9.474132,0.000813,1.144673,0.460088,0.217618,0.228169,-0.264089,0.136812,0.856719,-0.381176,0.202011,0.119762,0.284319,0.512330,-0.034967,-0.247401,-0.148913,0.297085,0.037501,-0.068440,0.349486,0.012821,0.354781,0.098485,-0.033921,0.136129,-0.068166,0.109922,0.128479,,,,,,,,,,,,,,,,,,,,,,,,,,,,,,,,,,,,,,,,,,,,,,,,,,,,,,,,,,,,,,,,,,,,,,,,,,,,,,,,,,,,,,,,,,,,,,,,,,,,,,,,,,,,,,,,,,,,,,
1690401985.854904,1690401985.854320,0.008031,0.000076,0.000047,-0.009339,-0.024273,0.003695,0.008038,0.000023,0.041599,0.024490,0.032484,0.009415,-0.025580,-0.002357,-0.019113,65.131648,9.410776,54.403654,36.723919,3.445032,70.055129,43.580847,-65.839464,0.804809,-0.422521,0.416208,-25.747134,0.023007,-0.000460,9.498223,0.000793,1.174456,0.466474,0.209033,0.229136,-0.269107,0.145214,0.845514,-0.388773,0.202250,0.119901,0.281766,0.519757,-0.040940,-0.250230,-0.149272,0.298031,0.037578,-0.068454,0.350659,0.012695,0.355974,0.098550,-0.033881,0.135858,-0.065680,0.113480,0.128245,,,,,,,,,,,,,,,,,,,,,,,,,,,,,,,,,,,,,,,,,,,,,,,,,,,,,,,,,,,,,,,,,,,,,,,,,,,,,,,,,,,,,,,,,,,,,,,,,,,,,,,,,,,,,,,,,,,,,,
1690401985.955296,1690401985.954734,0.005871,0.000046,0.000030,-0.009307,-0.019144,0.010985,0.005850,0.000014,0.017779,0.011928,0.012730,0.006905,-0.035643,-0.002679,-0.027014,67.119698,9.567265,56.348425,36.850237,3.580938,72.186630,43.320771,-66.146301,0.804168,-0.424295,0.415773,-26.083896,0.020480,-0.000362,9.511380,0.000618,1.195062,0.468244,0.201178,0.229523,-0.273013,0.151579,0.829760,-0.395132,0.201809,0.120607,0.278383,0.522853,-0.046369,-0.252478,-0.149654,0.298540,0.037705,-0.068599,0.351565,0.012785,0.356442,0.097592,-0.033505,0.134410,-0.064745,0.110158,0.124591,,,,,,,,,,,,,,,,,,,,,,,,,,,,,,,,,,,,,,,,,,,,,,,,,,,,,,,,,,,,,,,,,,,,,,,,,,,,,,,,,,,,,,,,,,,,,,,,,,,,,,,,,,,,,,,,,,,,,,
1690401986.088212,1690401986.088033,0.008027,0.000075,0.000048,-0.010298,-0.024502,0.002309,0.008031,0.000026,0.043274,0.023817,0.034425,0.009411,-0.025209,-0.000815,-0.019067,70.059902,9.923934,59.199009,37.111122,3.894036,75.221586,44.346322,-64.255115,0.809028,-0.412581,0.417689,-24.738621,0.028055,-0.000455,9.537695,0.000748,1.225801,0.475010,0.192721,0.230246,-0.277654,0.159895,0.823038,-0.401073,0.202072,0.120087,0.276574,0.532228,-0.051583,-0.254636,-0.149696,0.299561,0.037725,-0.068559,0.352600,0.012419,0.358012,0.098018,-0.033614,0.134642,-0.062351,0.116188,0.126101,,,,,,,,,,,,,,,,,,,,,,,,,,,,,,,,,,,,,,,,,,,,,,,,,,,,,,,,,,,,,,,,,,,,,,,,,,,,,,,,,,,,,,,,,,,,,,,,,,,,,,,,,,,,,,,,,,,,,,
1690401986.221404,1690401986.220997,0.007999,0.000071,0.000047,-0.008615,-0.022577,-0.008251,0.008037,0.000034,0.062131,0.030671,0.051484,0.009378,-0.006688,-0.000167,-0.005126,73.121881,10.213492,62.138257,37.289929,4.121123,78.368604,45.317474,-62.318945,0.813678,-0.400927,0.419437,-23.341552,0.035468,-0.000429,9.563669,0.000744,1.258497,0.478901,0.182997,0.231103,-0.282717,0.167886,0.810904,-0.410085,0.202018,0.121084,0.273402,0.542016,-0.058137,-0.257782,-0.150540,0.300409,0.037856,-0.068705,0.353827,0.012523,0.359118,0.098401,-0.033682,0.134805,-0.059495,0.121752,0.126996,,,,,,,,,,,,,,,,,,,,,,,,,,,,,,,,,,,,,,,,,,,,,,,,,,,,,,,,,,,,,,,,,,,,,,,,,,,,,,,,,,,,,,,,,,,,,,,,,,,,,,,,,,,,,,,,,,,,,,
1690401986.355659,1690401986.354323,0.008026,0.000070,0.000047,-0.010468,-0.022795,-0.010839,0.008057,0.000039,0.062094,0.029609,0.051290,0.009408,-0.005368,0.003277,-0.004844,76.161917,10.397159,65.048832,37.424174,4.218691,81.507260,45.860359,-61.233295,0.816127,-0.394035,0.420910,-22.660028,0.038846,-0.000425,9.587548,0.000737,1.294157,0.479505,0.172467,0.231855,-0.287764,0.174524,0.797950,-0.422847,0.201484,0.123575,0.269342,0.556354,-0.065528,-0.261939,-0.152481,0.300924,0.038011,-0.069181,0.354990,0.013065,0.360014,0.098186,-0.033523,0.134324,-0.057692,0.124154,0.126218,,,,,,,,,,,,,,,,,,,,,,,,,,,,,,,,,,,,,,,,,,,,,,,,,,,,,,,,,,,,,,,,,,,,,,,,,,,,,,,,,,,,,,,,,,,,,,,,,,,,,,,,,,,,,,,,,,,,,,
1690401986.492223,1690401986.491431,0.008293,0.000074,0.000049,-0.012826,-0.023749,-0.013029,0.008316,0.000045,0.062332,0.028748,0.051285,0.009716,-0.005089,0.006884,-0.005188,79.455581,10.585907,68.197687,37.563942,4.315410,84.886468,46.369965,-60.160603,0.818472,-0.387312,0.422289,-21.987166,0.042017,-0.000435,9.612024,0.000743,1.332629,0.480319,0.161549,0.232720,-0.293010,0.181590,0.785855,-0.435975,0.201012,0.126112,0.265392,0.572407,-0.073049,-0.266301,-0.154474,0.301526,0.038144,-0.069636,0.356188,0.013621,0.360946,0.097937,-0.033351,0.133779,-0.055927,0.126376,0.125327,,,,,,,,,,,,,,,,,,,,,,,,,,,,,,,,,,,,,,,,,,,,,,,,,,,,,,,,,,,,,,,,,,,,,,,,,,,,,,,,,,,,,,,,,,,,,,,,,,,,,,,,,,,,,,,,,,,,,,
1690401986.621267,1690401986.620990,0.007776,0.000072,0.000042,-0.019038,-0.025090,-0.002785,0.007746,0.000040,0.026286,0.014743,0.018854,0.009127,-0.029168,0.015355,-0.025052,82.623649,10.709884,71.252539,37.698476,4.364572,88.189309,46.100901,-60.765331,0.817235,-0.389883,0.422693,-22.682150,0.038066,-0.000432,9.630902,0.000690,1.369591,0.480512,0.150805,0.233494,-0.298064,0.188666,0.772895,-0.448140,0.200448,0.128533,0.261418,0.587213,-0.080311,-0.270441,-0.156255,0.302110,0.038261,-0.070050,0.357318,0.014177,0.361654,0.096747,-0.032857,0.132061,-0.056248,0.122877,0.122068,,,,,,,,,,,,,,,,,,,,,,,,,,,,,,,,,,,,,,,,,,,,,,,,,,,,,,,,,,,,,,,,,,,,,,,,,,,,,,,,,,,,,,,,,,,,,,,,,,,,,,,,,,,,,,,,,,,,,,
1690401986.721262,1690401986.720992,0.005845,0.000044,0.000030,-0.012518,-0.019906,0.008333,0.005816,0.000021,0.017244,0.009817,0.012527,0.006878,-0.037505,0.006639,-0.030612,85.302381,10.916481,73.859085,37.792415,4.546453,90.976132,46.088784,-60.395167,0.818420,-0.388342,0.421759,-22.393415,0.038707,-0.000345,9.644697,0.000542,1.394778,0.483936,0.143119,0.233800,-0.302182,0.196826,0.761009,-0.452202,0.200139,0.128530,0.259152,0.590982,-0.084956,-0.272212,-0.156060,0.302820,0.038252,-0.069899,0.358183,0.014143,0.362053,0.096295,-0.032674,0.131040,-0.054289,0.120881,0.119006,,,,,,,,,,,,,,,,,,,,,,,,,,,,,,,,,,,,,,,,,,,,,,,,,,,,,,,,,,,,,,,,,,,,,,,,,,,,,,,,,,,,,,,,,,,,,,,,,,,,,,,,,,,,,,,,,,,,,,
1690401986.854931,1690401986.854319,0.008039,0.000074,0.000052,-0.014138,-0.026307,0.006192,0.008011,0.000034,0.039369,0.018056,0.031839,0.009429,-0.037699,0.006548,-0.030296,89.056617,11.231671,77.495483,37.992944,4.819067,94.810002,46.776864,-58.719581,0.822077,-0.378879,0.422678,-21.147627,0.044531,-0.000450,9.669000,0.000644,1.430285,0.489281,0.132915,0.234127,-0.306937,0.206304,0.754260,-0.457357,0.200055,0.128032,0.257315,0.601825,-0.090272,-0.273951,-0.156024,0.303818,0.038227,-0.069768,0.359178,0.013774,0.363589,0.096464,-0.032713,0.130920,-0.051710,0.124628,0.118865,,,,,,,,,,,,,,,,,,,,,,,,,,,,,,,,,,,,,,,,,,,,,,,,,,,,,,,,,,,,,,,,,,,,,,,,,,,,,,,,,,,,,,,,,,,,,,,,,,,,,,,,,,,,,,,,,,,,,,
1690401986.987847,1690401986.987656,0.008036,0.000073,0.000053,-0.012889,-0.025742,0.004800,0.008019,0.000032,0.048347,0.020152,0.040395,0.009427,-0.034303,0.004628,-0.027454,92.892233,11.454650,81.209603,38.136820,5.005564,98.745351,47.266131,-57.384443,0.824926,-0.371468,0.423238,-20.169214,0.048770,-0.000443,9.691929,0.000622,1.464712,0.491455,0.121233,0.234211,-0.311816,0.215799,0.741062,-0.462740,0.199525,0.128152,0.254025,0.610568,-0.096515,-0.275790,-0.156032,0.304735,0.038314,-0.069747,0.360272,0.013583,0.364702,0.096406,-0.032657,0.130476,-0.049251,0.126690,0.117776,,,,,,,,,,,,,,,,,,,,,,,,,,,,,,,,,,,,,,,,,,,,,,,,,,,,,,,,,,,,,,,,,,,,,,,,,,,,,,,,,,,,,,,,,,,,,,,,,,,,,,,,,,,,,,,,,,,,,,
1690401987.121728,1690401987.120990,0.008032,0.000072,0.000055,-0.012395,-0.024946,0.001021,0.008028,0.000033,0.058361,0.022311,0.049842,0.009423,-0.027790,0.003604,-0.022271,96.831882,11.620186,85.013645,38.260763,5.128499,102.776007,47.796630,-55.937042,0.827818,-0.363453,0.423997,-19.105645,0.053351,-0.000434,9.715382,0.000606,1.499639,0.491727,0.108902,0.234176,-0.316626,0.224829,0.726936,-0.468688,0.198834,0.128723,0.250233,0.620467,-0.103103,-0.277784,-0.156267,0.305607,0.038457,-0.069823,0.361405,0.013495,0.365776,0.096400,-0.032618,0.130134,-0.046763,0.129230,0.116963,,,,,,,,,,,,,,,,,,,,,,,,,,,,,,,,,,,,,,,,,,,,,,,,,,,,,,,,,,,,,,,,,,,,,,,,,,,,,,,,,,,,,,,,,,,,,,,,,,,,,,,,,,,,,,,,,,,,,,
1690401987.254462,1690401987.254321,0.008030,0.000070,0.000056,-0.012594,-0.024139,-0.003672,0.008037,0.000036,0.067604,0.023970,0.058501,0.009420,-0.020631,0.003384,-0.016722,100.851644,11.717765,88.881144,38.364444,5.172186,106.877538,48.332082,-54.451859,0.830602,-0.355251,0.424900,-18.018919,0.057937,-0.000424,9.739103,0.000596,1.535633,0.489967,0.096051,0.234074,-0.321412,0.233267,0.712200,-0.475629,0.198001,0.129898,0.245942,0.632270,-0.110086,-0.280144,-0.156831,0.306416,0.038648,-0.070013,0.362588,0.013575,0.366765,0.096399,-0.032575,0.129829,-0.044307,0.131919,0.116226,,,,,,,,,,,,,,,,,,,,,,,,,,,,,,,,,,,,,,,,,,,,,,,,,,,,,,,,,,,,,,,,,,,,,,,,,,,,,,,,,,,,,,,,,,,,,,,,,,,,,,,,,,,,,,,,,,,,,,
1690401987.388310,1690401987.387696,0.008032,0.000067,0.000057,-0.013131,-0.023082,-0.009932,0.008053,0.000041,0.078655,0.025803,0.068835,0.009422,-0.011024,0.002891,-0.009134,104.930449,11.748003,92.789556,38.448710,5.135692,111.021782,48.907496,-52.806563,0.833484,-0.346286,0.425936,-16.800815,0.062994,-0.000412,9.763363,0.000591,1.572715,0.486205,0.082790,0.233886,-0.326167,0.241134,0.697029,-0.483515,0.197008,0.131642,0.241196,0.646155,-0.117410,-0.282897,-0.157699,0.307146,0.038867,-0.070313,0.363796,0.013822,0.367650,0.096462,-0.032551,0.129632,-0.041699,0.135085,0.115676,,,,,,,,,,,,,,,,,,,,,,,,,,,,,,,,,,,,,,,,,,,,,,,,,,,,,,,,,,,,,,,,,,,,,,,,,,,,,,,,,,,,,,,,,,,,,,,,,,,,,,,,,,,,,,,,,,,,,,
1690401987.521270,1690401987.521003,0.008028,0.000065,0.000057,-0.014591,-0.022395,-0.014954,0.008052,0.000046,0.083961,0.025907,0.073683,0.009417,-0.004867,0.004478,-0.004681,108.986444,11.692303,96.663697,38.517849,4.999746,115.135276,49.413681,-51.330680,0.835904,-0.338176,0.427064,-15.739741,0.067209,-0.000402,9.787450,0.000589,1.610699,0.479944,0.069164,0.233552,-0.330831,0.248190,0.681299,-0.492502,0.195778,0.134042,0.235883,0.662599,-0.125100,-0.286127,-0.158900,0.307742,0.039103,-0.070764,0.364987,0.014279,0.368384,0.096424,-0.032474,0.129334,-0.039404,0.137775,0.114936,,,,,,,,,,,,,,,,,,,,,,,,,,,,,,,,,,,,,,,,,,,,,,,,,,,,,,,,,,,,,,,,,,,,,,,,,,,,,,,,,,,,,,,,,,,,,,,,,,,,,,,,,,,,,,,,,,,,,,
1690401987.621256,1690401987.620990,0.005849,0.000046,0.000025,-0.021320,-0.020535,0.001765,0.005806,0.000035,-0.005912,0.003002,-0.010150,0.006910,-0.044218,0.030267,-0.041404,111.747209,11.499078,99.367607,38.565657,4.765046,118.100625,48.520493,-54.416198,0.830532,-0.352173,0.428095,-18.637575,0.054093,-0.000329,9.797925,0.000471,1.636200,0.470779,0.058113,0.232692,-0.334218,0.253093,0.663210,-0.499199,0.194116,0.136470,0.230375,0.673396,-0.131539,-0.288728,-0.159787,0.307948,0.039321,-0.071277,0.365819,0.014845,0.368358,0.094461,-0.031569,0.126560,-0.043920,0.129019,0.111042,,,,,,,,,,,,,,,,,,,,,,,,,,,,,,,,,,,,,,,,,,,,,,,,,,,,,,,,,,,,,,,,,,,,,,,,,,,,,,,,,,,,,,,,,,,,,,,,,,,,,,,,,,,,,,,,,,,,,,
1690401987.754578,1690401987.754321,0.008044,0.000077,0.000043,-0.026717,-0.026488,-0.004587,0.007982,0.000056,0.009981,0.008030,0.003512,0.009472,-0.038368,0.036516,-0.035707,116.412694,11.735810,103.902989,38.607909,4.973134,122.859421,49.000615,-52.773266,0.833651,-0.343582,0.428375,-17.395135,0.058916,-0.000425,9.822197,0.000553,1.674538,0.475635,0.047695,0.231519,-0.338859,0.265031,0.658240,-0.502214,0.193505,0.135609,0.229283,0.684634,-0.136071,-0.289978,-0.159391,0.308570,0.039155,-0.070620,0.366756,0.014422,0.369480,0.094625,-0.031601,0.126325,-0.041563,0.132424,0.110913,,,,,,,,,,,,,,,,,,,,,,,,,,,,,,,,,,,,,,,,,,,,,,,,,,,,,,,,,,,,,,,,,,,,,,,,,,,,,,,,,,,,,,,,,,,,,,,,,,,,,,,,,,,,,,,,,,,,,,
1690401987.887779,1690401987.887657,0.008037,0.000073,0.000047,-0.023474,-0.024949,-0.006635,0.007988,0.000052,0.030225,0.011894,0.023334,0.009450,-0.026808,0.028576,-0.023829,121.346303,11.850321,108.688654,38.601000,5.055842,127.885912,49.392597,-51.152104,0.836709,-0.335482,0.428159,-16.126684,0.063637,-0.000414,9.845426,0.000534,1.715553,0.479807,0.036218,0.230779,-0.343920,0.277499,0.649435,-0.505561,0.192926,0.135143,0.227416,0.694057,-0.141284,-0.291425,-0.159107,0.309374,0.039035,-0.069973,0.367837,0.014177,0.370180,0.094733,-0.031619,0.125960,-0.038813,0.134741,0.110012,,,,,,,,,,,,,,,,,,,,,,,,,,,,,,,,,,,,,,,,,,,,,,,,,,,,,,,,,,,,,,,,,,,,,,,,,,,,,,,,,,,,,,,,,,,,,,,,,,,,,,,,,,,,,,,,,,,,,,
1690401988.021133,1690401988.020991,0.008031,0.000068,0.000048,-0.024527,-0.021580,-0.022709,0.008005,0.000059,0.056990,0.016683,0.048876,0.009434,0.005314,0.023147,0.004849,126.446264,11.829689,113.608273,38.628848,4.983587,133.045692,49.962362,-49.114931,0.840052,-0.324993,0.428776,-14.565238,0.069592,-0.000386,9.871199,0.000541,1.759772,0.481714,0.023218,0.230541,-0.349073,0.288983,0.639576,-0.510313,0.192385,0.135394,0.224786,0.705847,-0.147240,-0.293180,-0.159412,0.310337,0.039011,-0.069618,0.369000,0.014111,0.371041,0.095040,-0.031695,0.125980,-0.035953,0.139464,0.110452,,,,,,,,,,,,,,,,,,,,,,,,,,,,,,,,,,,,,,,,,,,,,,,,,,,,,,,,,,,,,,,,,,,,,,,,,,,,,,,,,,,,,,,,,,,,,,,,,,,,,,,,,,,,,,,,,,,,,,
1690401988.155078,1690401988.154323,0.008035,0.000062,0.000051,-0.025026,-0.018959,-0.034348,0.008028,0.000071,0.081008,0.020293,0.071600,0.009433,0.027668,0.016985,0.024650,131.459621,11.595193,118.393368,38.675833,4.662298,138.063518,50.528176,-47.029490,0.843177,-0.314312,0.429599,-12.970384,0.075533,-0.000366,9.896816,0.000554,1.809404,0.480173,0.009152,0.230927,-0.354302,0.298410,0.629441,-0.518631,0.191884,0.137176,0.221077,0.723735,-0.154294,-0.296258,-0.160688,0.311316,0.039083,-0.069694,0.370208,0.014580,0.371665,0.095303,-0.031730,0.126016,-0.032947,0.143846,0.110413,,,,,,,,,,,,,,,,,,,,,,,,,,,,,,,,,,,,,,,,,,,,,,,,,,,,,,,,,,,,,,,,,,,,,,,,,,,,,,,,,,,,,,,,,,,,,,,,,,,,,,,,,,,,,,,,,,,,,,
1690401988.287860,1690401988.287660,0.008037,0.000062,0.000051,-0.026499,-0.018945,-0.035703,0.008022,0.000071,0.079005,0.019017,0.069137,0.009437,0.026610,0.020642,0.022541,136.080179,11.186950,122.786845,38.750693,4.151939,142.683805,50.862442,-45.885420,0.844756,-0.307941,0.430686,-12.221676,0.077912,-0.000361,9.920629,0.000553,1.859367,0.473872,-0.005716,0.230972,-0.359075,0.305785,0.617684,-0.528746,0.190866,0.139993,0.216135,0.745989,-0.161982,-0.300032,-0.162481,0.312002,0.039197,-0.070196,0.371214,0.015432,0.372033,0.095134,-0.031554,0.125518,-0.031338,0.145644,0.109383,,,,,,,,,,,,,,,,,,,,,,,,,,,,,,,,,,,,,,,,,,,,,,,,,,,,,,,,,,,,,,,,,,,,,,,,,,,,,,,,,,,,,,,,,,,,,,,,,,,,,,,,,,,,,,,,,,,,,,
1690401988.388483,1690401988.387661,0.005835,0.000040,0.000025,-0.022775,-0.016303,-0.017062,0.005804,0.000034,0.023348,0.008145,0.017304,0.006891,-0.005860,0.030924,-0.008026,139.386918,10.761609,125.968376,38.783367,3.662234,146.077903,50.631557,-46.954562,0.843315,-0.312088,0.431416,-13.352040,0.072806,-0.000281,9.934812,0.000438,1.895850,0.466480,-0.017411,0.230664,-0.362685,0.311496,0.604154,-0.536072,0.189646,0.142434,0.211403,0.761070,-0.168163,-0.303036,-0.163735,0.312421,0.039265,-0.070605,0.371927,0.016232,0.371656,0.094257,-0.031081,0.123990,-0.032844,0.142098,0.107222,,,,,,,,,,,,,,,,,,,,,,,,,,,,,,,,,,,,,,,,,,,,,,,,,,,,,,,,,,,,,,,,,,,,,,,,,,,,,,,,,,,,,,,,,,,,,,,,,,,,,,,,,,,,,,,,,,,,,,
1690401988.521822,1690401988.520990,0.008034,0.000066,0.000044,-0.030965,-0.020154,-0.034751,0.007991,0.000068,0.054832,0.014001,0.045392,0.009455,0.020343,0.035267,0.015496,144.954185,10.467671,131.292032,38.809646,3.299531,151.634221,51.118008,-44.931562,0.846221,-0.301849,0.432076,-11.820726,0.078145,-0.000358,9.960731,0.000536,1.950704,0.467875,-0.031009,0.230970,-0.368000,0.322538,0.600145,-0.543680,0.189586,0.143513,0.209227,0.782178,-0.174434,-0.306046,-0.164826,0.313479,0.039234,-0.070189,0.373230,0.016361,0.372506,0.094517,-0.031106,0.123993,-0.030185,0.146587,0.107314,,,,,,,,,,,,,,,,,,,,,,,,,,,,,,,,,,,,,,,,,,,,,,,,,,,,,,,,,,,,,,,,,,,,,,,,,,,,,,,,,,,,,,,,,,,,,,,,,,,,,,,,,,,,,,,,,,,,,,
1690401988.654579,1690401988.654325,0.008035,0.000069,0.000045,-0.028779,-0.022671,-0.020214,0.007979,0.000060,0.036834,0.010946,0.028483,0.009469,-0.006773,0.041024,-0.008832,150.241854,9.911920,136.364720,38.841803,2.669970,156.973090,51.155818,-44.594444,0.846899,-0.299761,0.432237,-11.692362,0.077948,-0.000371,9.981718,0.000513,2.007687,0.465319,-0.045875,0.231359,-0.373314,0.332479,0.591412,-0.552603,0.189103,0.145515,0.205465,0.804624,-0.181625,-0.309734,-0.166221,0.314478,0.039206,-0.070074,0.374435,0.016930,0.372569,0.094053,-0.030861,0.122911,-0.029469,0.145153,0.105080,,,,,,,,,,,,,,,,,,,,,,,,,,,,,,,,,,,,,,,,,,,,,,,,,,,,,,,,,,,,,,,,,,,,,,,,,,,,,,,,,,,,,,,,,,,,,,,,,,,,,,,,,,,,,,,,,,,,,,
1690401988.787863,1690401988.787659,0.008035,0.000067,0.000049,-0.026348,-0.022427,-0.017553,0.007984,0.000058,0.048528,0.011770,0.040177,0.009460,-0.006303,0.035586,-0.006969,155.849277,9.413478,141.757279,38.827098,2.116708,162.636593,51.376015,-43.209498,0.849043,-0.293033,0.432034,-10.635329,0.081267,-0.000368,10.004712,0.000504,2.062808,0.464613,-0.060830,0.230984,-0.378636,0.344581,0.582877,-0.558921,0.188558,0.146557,0.202486,0.823057,-0.188150,-0.312387,-0.167143,0.315401,0.039187,-0.069517,0.375720,0.017044,0.372886,0.094027,-0.030810,0.122398,-0.027233,0.146409,0.103712,,,,,,,,,,,,,,,,,,,,,,,,,,,,,,,,,,,,,,,,,,,,,,,,,,,,,,,,,,,,,,,,,,,,,,,,,,,,,,,,,,,,,,,,,,,,,,,,,,,,,,,,,,,,,,,,,,,,,,
1690401988.921261,1690401988.920989,0.008034,0.000064,0.000053,-0.026390,-0.020745,-0.023884,0.007995,0.000062,0.068292,0.013250,0.059326,0.009449,0.008775,0.028742,0.007569,161.383884,8.808248,147.071865,38.858745,1.449047,168.224596,51.683269,-41.465895,0.851454,-0.284536,0.432132,-9.294577,0.085604,-0.000355,10.029075,0.000508,2.117927,0.461747,-0.076798,0.230419,-0.383835,0.356273,0.573161,-0.564809,0.187780,0.147731,0.199009,0.841866,-0.194860,-0.314818,-0.168185,0.316327,0.039211,-0.069132,0.376983,0.017169,0.373355,0.094140,-0.030804,0.122137,-0.024639,0.149088,0.102931,,,,,,,,,,,,,,,,,,,,,,,,,,,,,,,,,,,,,,,,,,,,,,,,,,,,,,,,,,,,,,,,,,,,,,,,,,,,,,,,,,,,,,,,,,,,,,,,,,,,,,,,,,,,,,,,,,,,,,
1690401989.021356,1690401989.021122,0.005852,0.000040,0.000026,-0.018167,-0.018652,0.001180,0.005805,0.000034,0.008416,0.005430,0.003305,0.006927,-0.037693,0.037904,-0.036567,165.195384,8.185934,150.776064,38.901823,0.781513,172.200220,51.409078,-42.793568,0.849967,-0.290027,0.432465,-10.596659,0.080090,-0.000284,10.041628,0.000401,2.157822,0.454968,-0.089823,0.229607,-0.387664,0.364274,0.560446,-0.569117,0.186649,0.149260,0.194848,0.855057,-0.200591,-0.316861,-0.169025,0.316924,0.039277,-0.069064,0.377900,0.017536,0.373069,0.093263,-0.030367,0.120435,-0.026381,0.143967,0.100217,,,,,,,,,,,,,,,,,,,,,,,,,,,,,,,,,,,,,,,,,,,,,,,,,,,,,,,,,,,,,,,,,,,,,,,,,,,,,,,,,,,,,,,,,,,,,,,,,,,,,,,,,,,,,,,,,,,,,,
1690401989.154603,1690401989.154322,0.008025,0.000067,0.000046,-0.030147,-0.021264,-0.024710,0.007964,0.000062,0.041018,0.009937,0.032597,0.009466,0.004641,0.043736,0.001763,170.938973,7.694673,156.318156,38.908341,0.253638,177.997568,51.828713,-40.722684,0.852609,-0.279690,0.433110,-9.040409,0.085129,-0.000349,10.068527,0.000494,2.209011,0.454976,-0.104820,0.227518,-0.392005,0.377832,0.555123,-0.572372,0.185707,0.149232,0.193014,0.871920,-0.205753,-0.318046,-0.169760,0.317448,0.039294,-0.068270,0.378926,0.017123,0.374264,0.093581,-0.030435,0.120506,-0.023858,0.149420,0.100974,,,,,,,,,,,,,,,,,,,,,,,,,,,,,,,,,,,,,,,,,,,,,,,,,,,,,,,,,,,,,,,,,,,,,,,,,,,,,,,,,,,,,,,,,,,,,,,,,,,,,,,,,,,,,,,,,,,,,,
1690401989.287815,1690401989.287658,0.008034,0.000064,0.000050,-0.028669,-0.020500,-0.025533,0.007980,0.000063,0.057378,0.010692,0.048587,0.009466,0.010842,0.037197,0.008709,176.613395,6.810859,161.773441,38.930540,-0.691146,183.753686,52.028810,-39.211179,0.854702,-0.272404,0.432938,-7.890791,0.088570,-0.000343,10.092147,0.000492,2.269730,0.452374,-0.121227,0.226915,-0.397253,0.390179,0.546885,-0.578481,0.185086,0.150475,0.189747,0.892799,-0.212412,-0.320753,-0.170954,0.318353,0.039280,-0.067638,0.380228,0.017280,0.374401,0.093619,-0.030398,0.120086,-0.021578,0.151141,0.099802,,,,,,,,,,,,,,,,,,,,,,,,,,,,,,,,,,,,,,,,,,,,,,,,,,,,,,,,,,,,,,,,,,,,,,,,,,,,,,,,,,,,,,,,,,,,,,,,,,,,,,,,,,,,,,,,,,,,,,
1690401989.421131,1690401989.420988,0.008040,0.000056,0.000054,-0.031940,-0.016574,-0.043292,0.008009,0.000080,0.094980,0.012412,0.084817,0.009456,0.047628,0.022836,0.043682,181.994308,5.786263,166.915372,39.024010,-1.792212,189.186466,52.380710,-36.837753,0.857516,-0.261127,0.433065,-6.024217,0.094522,-0.000321,10.118386,0.000518,2.331020,0.446924,-0.138593,0.226232,-0.402408,0.401680,0.537499,-0.584527,0.184233,0.152031,0.185806,0.915177,-0.219380,-0.323500,-0.172327,0.319284,0.039297,-0.067257,0.381512,0.017543,0.374605,0.093952,-0.030466,0.120185,-0.018189,0.155676,0.099544,,,,,,,,,,,,,,,,,,,,,,,,,,,,,,,,,,,,,,,,,,,,,,,,,,,,,,,,,,,,,,,,,,,,,,,,,,,,,,,,,,,,,,,,,,,,,,,,,,,,,,,,,,,,,,,,,,,,,,
1690401989.556110,1690401989.555433,0.008115,0.000063,0.000052,-0.031169,-0.018779,-0.033868,0.008058,0.000068,0.065197,0.010258,0.055115,0.009563,0.020506,0.038872,0.015616,186.446878,4.554338,171.159805,39.265515,-3.126146,193.745819,52.478368,-36.629410,0.857711,-0.259105,0.434137,-6.105020,0.093388,-0.000328,10.141025,0.000512,2.391984,0.434416,-0.156593,0.225356,-0.407025,0.409581,0.526205,-0.591985,0.182830,0.154780,0.180070,0.943578,-0.227173,-0.327187,-0.173968,0.320055,0.039337,-0.067595,0.382579,0.018410,0.374391,0.093527,-0.030179,0.119188,-0.018194,0.155173,0.098065,,,,,,,,,,,,,,,,,,,,,,,,,,,,,,,,,,,,,,,,,,,,,,,,,,,,,,,,,,,,,,,,,,,,,,,,,,,,,,,,,,,,,,,,,,,,,,,,,,,,,,,,,,,,,,,,,,,,,,
1690401989.687852,1690401989.687655,0.007960,0.000063,0.000051,-0.027284,-0.020121,-0.022623,0.007897,0.000060,0.054579,0.009045,0.045249,0.009391,0.000363,0.042747,-0.002972,191.526865,3.337052,176.032638,39.429333,-4.419389,198.947661,52.538299,-35.905503,0.858746,-0.255336,0.434137,-5.643930,0.094256,-0.000327,10.163138,0.000499,2.455766,0.426343,-0.174219,0.224566,-0.412093,0.420682,0.516666,-0.598343,0.181865,0.156680,0.175685,0.969205,-0.234376,-0.330459,-0.175466,0.320938,0.039329,-0.067215,0.383852,0.018748,0.374315,0.093299,-0.030039,0.118368,-0.017141,0.154877,0.096422,,,,,,,,,,,,,,,,,,,,,,,,,,,,,,,,,,,,,,,,,,,,,,,,,,,,,,,,,,,,,,,,,,,,,,,,,,,,,,,,,,,,,,,,,,,,,,,,,,,,,,,,,,,,,,,,,,,,,,
1690401989.821251,1690401989.820989,0.008041,0.000065,0.000052,-0.021432,-0.022979,-0.006446,0.007968,0.000055,0.046783,0.008290,0.038264,0.009496,-0.027395,0.046544,-0.027901,196.801742,2.123074,181.108741,39.589164,-5.699224,204.375199,52.548828,-35.203023,0.859864,-0.251882,0.433726,-5.160635,0.095247,-0.000339,10.184591,0.000485,2.518966,0.418964,-0.192232,0.223079,-0.417041,0.433357,0.507534,-0.603377,0.180835,0.158143,0.171753,0.993170,-0.241209,-0.333163,-0.176938,0.321731,0.039388,-0.066592,0.385161,0.018781,0.374577,0.093061,-0.029929,0.117484,-0.016007,0.153841,0.094432,,,,,,,,,,,,,,,,,,,,,,,,,,,,,,,,,,,,,,,,,,,,,,,,,,,,,,,,,,,,,,,,,,,,,,,,,,,,,,,,,,,,,,,,,,,,,,,,,,,,,,,,,,,,,,,,,,,,,,
1690401989.921265,1690401989.920990,0.005845,0.000037,0.000030,-0.010800,-0.018752,0.008966,0.005795,0.000028,0.030686,0.005637,0.025348,0.006915,-0.043511,0.035697,-0.041010,200.611901,1.270279,184.805834,39.614703,-6.575543,208.351911,52.432971,-34.862515,0.860810,-0.250468,0.432589,-4.903964,0.095596,-0.000259,10.199295,0.000388,2.557780,0.411939,-0.206028,0.220010,-0.420008,0.444958,0.495879,-0.603951,0.179383,0.158705,0.168441,1.003631,-0.245745,-0.334004,-0.177783,0.321944,0.039547,-0.065814,0.385994,0.018480,0.374599,0.092851,-0.029860,0.116602,-0.015114,0.151707,0.092430,,,,,,,,,,,,,,,,,,,,,,,,,,,,,,,,,,,,,,,,,,,,,,,,,,,,,,,,,,,,,,,,,,,,,,,,,,,,,,,,,,,,,,,,,,,,,,,,,,,,,,,,,,,,,,,,,,,,,,
1690401990.054583,1690401990.054323,0.008044,0.000063,0.000058,-0.013057,-0.025266,0.007983,0.007977,0.000044,0.071238,0.007528,0.063422,0.009480,-0.041562,0.036411,-0.037300,205.660455,0.176112,189.654069,39.827870,-7.721113,213.507806,52.590658,-32.926977,0.863062,-0.241579,0.432065,-3.342774,0.100417,-0.000340,10.223127,0.000456,2.611927,0.405168,-0.224128,0.216630,-0.423472,0.458753,0.489084,-0.605376,0.177918,0.159109,0.165431,1.023416,-0.251047,-0.334781,-0.179173,0.322437,0.039722,-0.065238,0.386913,0.018043,0.376117,0.092997,-0.029934,0.116429,-0.012245,0.153879,0.091211,,,,,,,,,,,,,,,,,,,,,,,,,,,,,,,,,,,,,,,,,,,,,,,,,,,,,,,,,,,,,,,,,,,,,,,,,,,,,,,,,,,,,,,,,,,,,,,,,,,,,,,,,,,,,,,,,,,,,,
1690401990.187849,1690401990.187656,0.008035,0.000056,0.000069,-0.019159,-0.021130,-0.013541,0.008020,0.000054,0.122051,0.006612,0.113368,0.009446,0.001906,0.014957,0.005357,210.022699,-1.124014,193.825462,40.091059,-9.076905,218.012250,52.779066,-30.327110,0.865768,-0.229838,0.431413,-1.193219,0.107254,-0.000320,10.248598,0.000470,2.661748,0.392555,-0.243537,0.212725,-0.426722,0.471691,0.476726,-0.604977,0.175957,0.159896,0.160615,1.040724,-0.256952,-0.335233,-0.180383,0.322999,0.039965,-0.064870,0.387843,0.017737,0.377103,0.093331,-0.030101,0.116589,-0.008240,0.157739,0.090425,,,,,,,,,,,,,,,,,,,,,,,,,,,,,,,,,,,,,,,,,,,,,,,,,,,,,,,,,,,,,,,,,,,,,,,,,,,,,,,,,,,,,,,,,,,,,,,,,,,,,,,,,,,,,,,,,,,,,,
1690401990.321230,1690401990.320991,0.008036,0.000056,0.000069,-0.019541,-0.020548,-0.015364,0.008016,0.000051,0.120190,0.005648,0.110746,0.009450,-0.003151,0.018356,-0.001562,213.105316,-2.680567,196.734356,40.542195,-10.733571,221.329632,52.915984,-29.097913,0.866876,-0.223636,0.431909,-0.334520,0.109393,-0.000315,10.272154,0.000474,2.711834,0.370967,-0.262764,0.209505,-0.430225,0.479766,0.462701,-0.605746,0.173863,0.162209,0.153475,1.064930,-0.264321,-0.337093,-0.181375,0.323743,0.040262,-0.065215,0.388967,0.018141,0.377288,0.093241,-0.030004,0.116119,-0.006596,0.158929,0.089145,,,,,,,,,,,,,,,,,,,,,,,,,,,,,,,,,,,,,,,,,,,,,,,,,,,,,,,,,,,,,,,,,,,,,,,,,,,,,,,,,,,,,,,,,,,,,,,,,,,,,,,,,,,,,,,,,,,,,,
1690401990.455474,1690401990.454326,0.008039,0.000045,0.000076,-0.025820,-0.017023,-0.033033,0.008070,0.000067,0.163826,0.003068,0.153521,0.009448,0.026482,-0.001206,0.027592,215.817104,-4.277624,199.242398,41.028305,-12.439284,224.225596,53.072883,-26.475297,0.869146,-0.211738,0.431592,1.817540,0.116105,-0.000301,10.297582,0.000494,2.762033,0.348420,-0.281368,0.206115,-0.433756,0.488207,0.449140,-0.606154,0.171748,0.164537,0.146337,1.090137,-0.271612,-0.339183,-0.182370,0.324478,0.040528,-0.065477,0.390145,0.018475,0.377506,0.093515,-0.030118,0.116295,-0.002536,0.162423,0.087962,,,,,,,,,,,,,,,,,,,,,,,,,,,,,,,,,,,,,,,,,,,,,,,,,,,,,,,,,,,,,,,,,,,,,,,,,,,,,,,,,,,,,,,,,,,,,,,,,,,,,,,,,,,,,,,,,,,,,,
1690401990.554522,1690401990.554341,0.005848,0.000036,0.000011,-0.012422,-0.017420,0.009464,0.005815,0.000082,-0.070259,0.009903,-0.078006,0.007115,-0.096773,0.092737,-0.107617,216.234622,-5.409730,199.685005,41.470367,-13.666854,225.133387,53.119514,-32.751321,0.862326,-0.235826,0.438196,-4.321729,0.093614,-0.000252,10.308871,0.000429,2.782242,0.317617,-0.292531,0.201677,-0.435083,0.488762,0.432142,-0.604261,0.169021,0.167662,0.137521,1.109481,-0.277888,-0.341475,-0.182022,0.324509,0.040904,-0.066399,0.390846,0.019444,0.376178,0.091681,-0.028966,0.112700,-0.014124,0.153823,0.087911,,,,,,,,,,,,,,,,,,,,,,,,,,,,,,,,,,,,,,,,,,,,,,,,,,,,,,,,,,,,,,,,,,,,,,,,,,,,,,,,,,,,,,,,,,,,,,,,,,,,,,,,,,,,,,,,,,,,,,
1690401990.688545,1690401990.687656,0.008039,0.000076,0.000024,-0.028104,-0.019597,-0.017545,0.008000,0.000122,-0.098536,0.014395,-0.111052,0.009828,-0.064084,0.125056,-0.083767,219.275034,-5.489902,202.344006,40.838053,-13.638779,227.922477,53.243728,-32.109875,0.863060,-0.231386,0.439345,-4.175933,0.092543,-0.000310,10.335118,0.000527,2.792845,0.312775,-0.297377,0.186414,-0.431185,0.506211,0.429759,-0.604720,0.166790,0.167971,0.136891,1.126628,-0.279689,-0.344209,-0.182999,0.321640,0.042739,-0.064319,0.390833,0.018319,0.377052,0.091792,-0.028808,0.112011,-0.014073,0.157676,0.088470,,,,,,,,,,,,,,,,,,,,,,,,,,,,,,,,,,,,,,,,,,,,,,,,,,,,,,,,,,,,,,,,,,,,,,,,,,,,,,,,,,,,,,,,,,,,,,,,,,,,,,,,,,,,,,,,,,,,,,
1690401990.821546,1690401990.821279,0.008060,0.000063,0.000040,-0.016116,-0.022141,-0.003033,0.007967,0.000069,-0.002695,0.009331,-0.012055,0.009606,-0.025132,0.074511,-0.029741,222.329257,-6.146901,204.940553,39.815473,-14.111437,230.619576,52.938710,-29.187341,0.867659,-0.220010,0.434191,-1.466989,0.101205,-0.000307,10.357797,0.000492,2.814126,0.313547,-0.300948,0.172526,-0.428037,0.524993,0.427620,-0.608395,0.165746,0.168295,0.136718,1.146113,-0.282785,-0.348614,-0.183401,0.318595,0.044748,-0.060859,0.391049,0.016955,0.375874,0.092300,-0.029244,0.111951,-0.008736,0.158569,0.086146,,,,,,,,,,,,,,,,,,,,,,,,,,,,,,,,,,,,,,,,,,,,,,,,,,,,,,,,,,,,,,,,,,,,,,,,,,,,,,,,,,,,,,,,,,,,,,,,,,,,,,,,,,,,,,,,,,,,,,
1690401990.955038,1690401990.954323,0.008023,0.000060,0.000051,-0.009512,-0.023865,0.007429,0.007933,0.000056,0.043817,0.006506,0.035480,0.009494,-0.022453,0.052747,-0.020012,226.615892,-7.657279,209.011479,39.831211,-15.654960,235.077715,52.786175,-27.302931,0.870319,-0.211991,0.431686,0.153029,0.106077,-0.000305,10.380015,0.000472,2.872762,0.308803,-0.317424,0.166762,-0.430574,0.542281,0.421754,-0.610531,0.164737,0.168706,0.134412,1.167771,-0.287524,-0.350823,-0.185584,0.318306,0.045251,-0.059097,0.392100,0.016240,0.376382,0.092487,-0.029401,0.111579,-0.005528,0.158761,0.084055,,,,,,,,,,,,,,,,,,,,,,,,,,,,,,,,,,,,,,,,,,,,,,,,,,,,,,,,,,,,,,,,,,,,,,,,,,,,,,,,,,,,,,,,,,,,,,,,,,,,,,,,,,,,,,,,,,,,,,
1690401991.087880,1690401991.087655,0.008043,0.000059,0.000059,-0.007718,-0.024050,0.008541,0.007964,0.000051,0.071500,0.004493,0.062871,0.009493,-0.020095,0.041749,-0.015433,230.390741,-9.342801,212.624193,40.173307,-17.418162,239.131445,52.734699,-25.731278,0.872203,-0.204757,0.430514,1.395183,0.109518,-0.000301,10.402951,0.000465,2.932223,0.298336,-0.337401,0.161971,-0.433416,0.557621,0.413368,-0.610342,0.163357,0.169251,0.130553,1.188718,-0.292656,-0.351916,-0.187978,0.318647,0.045532,-0.058130,0.393126,0.015808,0.377345,0.092584,-0.029449,0.111174,-0.003101,0.159527,0.082387,,,,,,,,,,,,,,,,,,,,,,,,,,,,,,,,,,,,,,,,,,,,,,,,,,,,,,,,,,,,,,,,,,,,,,,,,,,,,,,,,,,,,,,,,,,,,,,,,,,,,,,,,,,,,,,,,,,,,,
1690401991.221746,1690401991.220990,0.008038,0.000054,0.000070,-0.014818,-0.020387,-0.010682,0.008000,0.000058,0.119150,0.000563,0.109485,0.009464,0.014351,0.020653,0.018724,233.348277,-11.133867,215.425164,40.678060,-19.304691,242.388888,52.749751,-23.450899,0.874317,-0.194262,0.429665,3.231863,0.114981,-0.000285,10.427858,0.000476,2.989372,0.283272,-0.357966,0.157291,-0.436172,0.571275,0.403597,-0.608790,0.161770,0.170043,0.125542,1.210181,-0.298118,-0.352797,-0.190220,0.319227,0.045782,-0.057569,0.394147,0.015546,0.378283,0.092821,-0.029552,0.111196,0.000421,0.162415,0.081129,,,,,,,,,,,,,,,,,,,,,,,,,,,,,,,,,,,,,,,,,,,,,,,,,,,,,,,,,,,,,,,,,,,,,,,,,,,,,,,,,,,,,,,,,,,,,,,,,,,,,,,,,,,,,,,,,,,,,,
1690401991.355133,1690401991.354329,0.008038,0.000054,0.000071,-0.013684,-0.020047,-0.010110,0.007998,0.000052,0.118448,-0.000256,0.107877,0.009466,0.002656,0.023184,0.005482,234.866157,-13.043761,216.824986,41.403909,-21.348547,244.321868,52.786196,-22.311464,0.875301,-0.188431,0.429811,4.001703,0.116637,-0.000281,10.451269,0.000478,3.044833,0.259588,-0.377658,0.153174,-0.439317,0.580446,0.392470,-0.606960,0.160033,0.171836,0.118393,1.236893,-0.304763,-0.354603,-0.191807,0.320054,0.045989,-0.057619,0.395332,0.015824,0.378349,0.092774,-0.029478,0.110688,0.001908,0.163270,0.079726,,,,,,,,,,,,,,,,,,,,,,,,,,,,,,,,,,,,,,,,,,,,,,,,,,,,,,,,,,,,,,,,,,,,,,,,,,,,,,,,,,,,,,,,,,,,,,,,,,,,,,,,,,,,,,,,,,,,,,
1690401991.488949,1690401991.487673,0.008045,0.000036,0.000080,-0.027912,-0.013986,-0.040828,0.008088,0.000085,0.189347,-0.008225,0.177681,0.009468,0.053147,-0.011129,0.056190,235.797426,-14.951720,217.606160,42.179855,-23.398473,245.612565,52.769639,-19.175278,0.877588,-0.174193,0.428871,6.602877,0.124764,-0.000264,10.477371,0.000504,3.098829,0.234548,-0.396181,0.148713,-0.442391,0.589933,0.381563,-0.604413,0.158226,0.173606,0.111136,1.264002,-0.311289,-0.356579,-0.193306,0.320852,0.046202,-0.057644,0.396550,0.015988,0.378577,0.093136,-0.029635,0.111142,0.006966,0.167337,0.078163,,,,,,,,,,,,,,,,,,,,,,,,,,,,,,,,,,,,,,,,,,,,,,,,,,,,,,,,,,,,,,,,,,,,,,,,,,,,,,,,,,,,,,,,,,,,,,,,,,,,,,,,,,,,,,,,,,,,,,
1690401991.590431,1690401991.589082,0.005937,0.000027,0.000006,0.000868,-0.016364,0.020988,0.005933,0.000128,-0.110436,0.020565,-0.120728,0.007327,-0.130037,0.115177,-0.145308,233.765448,-16.014073,215.670939,42.831858,-24.600475,244.257337,53.295907,-26.748149,0.870234,-0.203728,0.437757,-0.789075,0.097753,-0.000232,10.488846,0.000456,3.111028,0.196978,-0.403576,0.142856,-0.442873,0.587091,0.366832,-0.598847,0.155686,0.176491,0.101108,1.285677,-0.317102,-0.359108,-0.192140,0.320836,0.046540,-0.058718,0.397217,0.017193,0.376238,0.091437,-0.028527,0.106917,-0.007570,0.158741,0.079748,,,,,,,,,,,,,,,,,,,,,,,,,,,,,,,,,,,,,,,,,,,,,,,,,,,,,,,,,,,,,,,,,,,,,,,,,,,,,,,,,,,,,,,,,,,,,,,,,,,,,,,,,,,,,,,,,,,,,,
1690401991.755164,1690401991.754322,0.010372,0.000257,0.000131,-0.065315,-0.003444,-0.095220,0.010953,0.000605,-0.399480,0.060641,-0.431684,0.014129,-0.146172,0.292497,-0.220835,234.949149,-15.534586,216.332096,42.015865,-23.957027,245.135432,54.243443,-30.348457,0.863690,-0.211904,0.450513,-5.421346,0.078571,-0.000292,10.525612,0.000748,3.092384,0.188969,-0.398027,0.119005,-0.431317,0.602537,0.367686,-0.599523,0.153407,0.177184,0.100095,1.311274,-0.317542,-0.365160,-0.193039,0.317272,0.049739,-0.057582,0.396344,0.016641,0.378079,0.091057,-0.027412,0.104412,-0.017036,0.166245,0.083992,,,,,,,,,,,,,,,,,,,,,,,,,,,,,,,,,,,,,,,,,,,,,,,,,,,,,,,,,,,,,,,,,,,,,,,,,,,,,,,,,,,,,,,,,,,,,,,,,,,,,,,,,,,,,,,,,,,,,,
1690401991.855188,1690401991.854327,0.005849,-0.000032,0.000094,-0.046388,-0.014792,-0.027597,0.006439,0.000167,0.368789,-0.028199,0.378291,0.007249,0.064420,-0.112549,0.103600,219.932792,-12.342668,199.053396,36.327115,-19.195163,225.570060,51.074478,-10.571559,0.884852,-0.140389,0.414087,15.538335,0.160807,-0.000174,10.534678,0.000399,2.829570,0.201783,-0.329263,0.070182,-0.384266,0.589839,0.369392,-0.607605,0.153364,0.177142,0.103295,1.312936,-0.315843,-0.378811,-0.180681,0.304527,0.060049,-0.051679,0.387719,0.016071,0.366464,0.093596,-0.031702,0.111646,0.024827,0.162969,0.070538,,,,,,,,,,,,,,,,,,,,,,,,,,,,,,,,,,,,,,,,,,,,,,,,,,,,,,,,,,,,,,,,,,,,,,,,,,,,,,,,,,,,,,,,,,,,,,,,,,,,,,,,,,,,,,,,,,,,,,
1690401991.987812,1690401991.987656,0.008081,-0.000221,0.000143,-0.100227,-0.010966,-0.091462,0.009514,0.000316,0.542045,-0.048015,0.550694,0.010443,0.071294,-0.185330,0.113794,198.593177,-11.729658,176.533047,35.137654,-17.975878,202.290426,51.006059,-5.306540,0.883817,-0.117282,0.415902,20.399428,0.179271,-0.000254,10.560115,0.000489,2.611545,0.118586,-0.302115,0.048949,-0.357308,0.535520,0.350338,-0.586669,0.151393,0.182257,0.080589,1.320518,-0.324832,-0.379376,-0.165736,0.301087,0.065039,-0.054286,0.383156,0.020946,0.352614,0.093677,-0.032145,0.113406,0.034476,0.166582,0.067341,,,,,,,,,,,,,,,,,,,,,,,,,,,,,,,,,,,,,,,,,,,,,,,,,,,,,,,,,,,,,,,,,,,,,,,,,,,,,,,,,,,,,,,,,,,,,,,,,,,,,,,,,,,,,,,,,,,,,,
1690401992.121151,1690401992.120993,0.008041,0.000027,0.000133,-0.024093,-0.016489,-0.006820,0.008375,0.000019,0.265605,-0.018355,0.262536,0.009620,-0.017133,-0.069017,0.006286,167.443133,-9.403816,144.370944,32.260778,-14.916382,169.635791,51.819033,-8.992126,0.883032,-0.130955,0.421397,16.137513,0.159778,-0.000245,10.582515,0.000439,2.245908,0.002961,-0.226455,0.019171,-0.321380,0.447623,0.327679,-0.556421,0.149012,0.189632,0.050355,1.317064,-0.334895,-0.383825,-0.137812,0.292590,0.072644,-0.056163,0.377715,0.026905,0.329813,0.092725,-0.030993,0.110960,0.025725,0.165374,0.067931,,,,,,,,,,,,,,,,,,,,,,,,,,,,,,,,,,,,,,,,,,,,,,,,,,,,,,,,,,,,,,,,,,,,,,,,,,,,,,,,,,,,,,,,,,,,,,,,,,,,,,,,,,,,,,,,,,,,,,
1690401992.254602,1690401992.254326,0.008043,-0.000021,0.000130,-0.040706,-0.010302,-0.038049,0.008473,0.000033,0.286993,-0.026160,0.281558,0.009695,-0.008158,-0.084775,0.007052,159.230939,-10.112390,135.915729,32.305981,-15.489542,161.558828,51.718720,-5.368469,0.882731,-0.114593,0.422452,19.303814,0.170845,-0.000247,10.607863,0.000445,2.184455,-0.049575,-0.218349,0.013477,-0.317043,0.429031,0.316797,-0.540952,0.148288,0.191547,0.035970,1.330478,-0.343696,-0.383685,-0.129788,0.292339,0.074083,-0.056941,0.377473,0.028082,0.325144,0.092763,-0.031178,0.111848,0.032181,0.168206,0.065470,,,,,,,,,,,,,,,,,,,,,,,,,,,,,,,,,,,,,,,,,,,,,,,,,,,,,,,,,,,,,,,,,,,,,,,,,,,,,,,,,,,,,,,,,,,,,,,,,,,,,,,,,,,,,,,,,,,,,,
1690401992.387889,1690401992.387656,0.008037,0.000021,0.000117,-0.022644,-0.010424,-0.019478,0.008240,-0.000007,0.212512,-0.018975,0.204033,0.009557,-0.030615,-0.049087,-0.022545,149.557003,-10.303849,126.030226,32.094708,-15.623404,152.157495,51.942520,-5.241953,0.882422,-0.112823,0.424658,19.020017,0.168130,-0.000247,10.631353,0.000446,2.104095,-0.107383,-0.198502,0.006546,-0.312465,0.405029,0.308915,-0.525955,0.147261,0.194395,0.021098,1.347950,-0.352808,-0.385876,-0.119366,0.290834,0.075851,-0.057564,0.377551,0.029537,0.319195,0.092378,-0.030856,0.111053,0.031435,0.168545,0.064528,,,,,,,,,,,,,,,,,,,,,,,,,,,,,,,,,,,,,,,,,,,,,,,,,,,,,,,,,,,,,,,,,,,,,,,,,,,,,,,,,,,,,,,,,,,,,,,,,,,,,,,,,,,,,,,,,,,,,,
1690401992.487824,1690401992.487664,0.005840,0.000034,0.000045,0.006830,-0.010655,0.019466,0.005809,-0.000003,0.070759,-0.000435,0.063008,0.006912,-0.054386,0.012297,-0.051462,144.229758,-10.610402,120.671081,32.263706,-15.955636,147.299068,52.372506,-8.155537,0.882074,-0.124288,0.427056,15.956271,0.155311,-0.000196,10.646395,0.000392,2.060036,-0.148482,-0.187390,0.003431,-0.311359,0.392435,0.301787,-0.514264,0.146390,0.196113,0.010386,1.359267,-0.359880,-0.387014,-0.112855,0.290524,0.076578,-0.058034,0.378071,0.030221,0.316163,0.091735,-0.030310,0.108915,0.024795,0.166003,0.065148,,,,,,,,,,,,,,,,,,,,,,,,,,,,,,,,,,,,,,,,,,,,,,,,,,,,,,,,,,,,,,,,,,,,,,,,,,,,,,,,,,,,,,,,,,,,,,,,,,,,,,,,,,,,,,,,,,,,,,
1690401992.621819,1690401992.620993,0.008034,0.000052,0.000090,0.000313,-0.012822,0.007184,0.008021,-0.000009,0.118496,-0.007038,0.106421,0.009487,-0.055008,0.003746,-0.054127,143.059313,-11.283030,119.208974,32.877534,-16.680936,146.247428,52.186295,-5.590341,0.882521,-0.112222,0.426985,18.065025,0.162009,-0.000256,10.671413,0.000465,2.073177,-0.172063,-0.191800,0.000555,-0.311940,0.397243,0.301310,-0.508081,0.146006,0.196386,0.004164,1.383883,-0.365977,-0.388529,-0.112407,0.291800,0.076665,-0.058197,0.379057,0.030172,0.317907,0.091825,-0.030412,0.109215,0.029140,0.168345,0.063173,,,,,,,,,,,,,,,,,,,,,,,,,,,,,,,,,,,,,,,,,,,,,,,,,,,,,,,,,,,,,,,,,,,,,,,,,,,,,,,,,,,,,,,,,,,,,,,,,,,,,,,,,,,,,,,,,,,,,,
1690401992.755478,1690401992.754332,0.008037,0.000053,0.000086,0.002507,-0.013811,0.011649,0.007999,-0.000006,0.104419,-0.006562,0.092272,0.009496,-0.059814,0.013762,-0.059454,140.984465,-11.892020,116.923202,33.527747,-17.364427,144.477902,52.071919,-4.620988,0.882934,-0.107130,0.426833,18.736014,0.163597,-0.000258,10.694417,0.000467,2.075417,-0.202687,-0.192101,-0.002384,-0.312759,0.399280,0.298774,-0.499764,0.145365,0.197050,-0.003949,1.407679,-0.373118,-0.390371,-0.110552,0.292945,0.076800,-0.058486,0.380181,0.030190,0.318778,0.091686,-0.030399,0.108674,0.030400,0.168310,0.061686,,,,,,,,,,,,,,,,,,,,,,,,,,,,,,,,,,,,,,,,,,,,,,,,,,,,,,,,,,,,,,,,,,,,,,,,,,,,,,,,,,,,,,,,,,,,,,,,,,,,,,,,,,,,,,,,,,,,,,
1690401992.889077,1690401992.887667,0.008052,0.000055,0.000064,0.013245,-0.018576,0.036584,0.007953,0.000006,0.066466,-0.000235,0.055635,0.009552,-0.083949,0.040343,-0.080753,139.213891,-12.396801,114.931499,34.177782,-17.944173,142.998418,52.004897,-4.817975,0.883487,-0.107314,0.426350,18.397440,0.161741,-0.000272,10.715380,0.000470,2.077141,-0.231381,-0.192158,-0.005799,-0.313064,0.402635,0.296991,-0.491428,0.144717,0.197465,-0.011680,1.430705,-0.379829,-0.392154,-0.109127,0.294139,0.076939,-0.058746,0.381233,0.030133,0.319989,0.091388,-0.030344,0.107496,0.029314,0.166222,0.060540,,,,,,,,,,,,,,,,,,,,,,,,,,,,,,,,,,,,,,,,,,,,,,,,,,,,,,,,,,,,,,,,,,,,,,,,,,,,,,,,,,,,,,,,,,,,,,,,,,,,,,,,,,,,,,,,,,,,,,
1690401993.021247,1690401993.020989,0.008044,0.000053,0.000076,0.005623,-0.017348,0.022834,0.007971,-0.000003,0.084605,-0.006172,0.073237,0.009519,-0.067906,0.029662,-0.065377,137.684459,-12.666409,113.092709,34.672309,-18.255014,141.539487,51.689654,-2.856763,0.884148,-0.097756,0.425287,19.996338,0.166904,-0.000263,10.739192,0.000461,2.068468,-0.253063,-0.191276,-0.011060,-0.310694,0.408351,0.294855,-0.482602,0.144075,0.196866,-0.018179,1.446401,-0.384354,-0.393160,-0.108864,0.295199,0.077141,-0.058920,0.381769,0.029993,0.321985,0.091456,-0.030472,0.107444,0.032763,0.167191,0.058570,,,,,,,,,,,,,,,,,,,,,,,,,,,,,,,,,,,,,,,,,,,,,,,,,,,,,,,,,,,,,,,,,,,,,,,,,,,,,,,,,,,,,,,,,,,,,,,,,,,,,,,,,,,,,,,,,,,,,,
1690401993.154538,1690401993.154326,0.008046,0.000052,0.000077,0.003782,-0.017873,0.021616,0.007972,-0.000005,0.085627,-0.008245,0.074263,0.009521,-0.065803,0.030330,-0.062832,135.963875,-12.998792,111.105343,35.257633,-18.651720,140.015078,51.433437,-1.537762,0.884699,-0.091017,0.424401,21.016332,0.170022,-0.000262,10.762083,0.000455,2.065292,-0.278326,-0.190560,-0.015632,-0.309640,0.413244,0.293871,-0.473353,0.143398,0.196653,-0.025460,1.465140,-0.389878,-0.394298,-0.108023,0.296364,0.077318,-0.059145,0.382563,0.029844,0.323613,0.091409,-0.030537,0.107065,0.034866,0.167130,0.056790,,,,,,,,,,,,,,,,,,,,,,,,,,,,,,,,,,,,,,,,,,,,,,,,,,,,,,,,,,,,,,,,,,,,,,,,,,,,,,,,,,,,,,,,,,,,,,,,,,,,,,,,,,,,,,,,,,,,,,
1690401993.255682,1690401993.254347,0.005850,0.000029,0.000036,0.007669,-0.015432,0.028941,0.005787,0.000001,0.048098,-0.003165,0.040629,0.006946,-0.061424,0.034609,-0.057195,134.307811,-13.130069,109.293345,35.656580,-18.831440,138.585911,51.319515,-1.596396,0.885276,-0.090817,0.423539,20.882491,0.169271,-0.000199,10.777305,0.000376,2.049361,-0.299065,-0.186691,-0.019896,-0.307859,0.416206,0.290600,-0.464204,0.142678,0.196233,-0.031918,1.472740,-0.393758,-0.394674,-0.106842,0.297186,0.077493,-0.059389,0.383006,0.029685,0.324538,0.091201,-0.030545,0.106167,0.034374,0.165098,0.055763,,,,,,,,,,,,,,,,,,,,,,,,,,,,,,,,,,,,,,,,,,,,,,,,,,,,,,,,,,,,,,,,,,,,,,,,,,,,,,,,,,,,,,,,,,,,,,,,,,,,,,,,,,,,,,,,,,,,,,
1690401993.388316,1690401993.387657,0.008044,0.000049,0.000078,0.001016,-0.019059,0.019977,0.007969,-0.000007,0.086237,-0.011402,0.074898,0.009517,-0.061870,0.031313,-0.057967,132.853557,-13.341985,107.512689,36.175875,-19.102631,137.192156,50.946486,0.597803,0.885634,-0.079845,0.422633,22.651620,0.175094,-0.000258,10.801721,0.000436,2.050065,-0.319500,-0.187181,-0.024769,-0.306071,0.422199,0.292846,-0.455592,0.142096,0.195538,-0.037995,1.491564,-0.398086,-0.395357,-0.106762,0.298239,0.077617,-0.059547,0.383587,0.029574,0.326705,0.091316,-0.030667,0.106322,0.038316,0.166712,0.053684,,,,,,,,,,,,,,,,,,,,,,,,,,,,,,,,,,,,,,,,,,,,,,,,,,,,,,,,,,,,,,,,,,,,,,,,,,,,,,,,,,,,,,,,,,,,,,,,,,,,,,,,,,,,,,,,,,,,,,
1690401993.521877,1690401993.520991,0.008041,0.000028,0.000101,-0.017785,-0.011195,-0.020488,0.008037,0.000007,0.125103,-0.024329,0.111841,0.009479,-0.023006,-0.000399,-0.024256,130.797671,-13.557002,105.178784,36.749999,-19.392120,135.331172,50.404094,3.681694,0.885572,-0.064422,0.421691,25.185814,0.183818,-0.000243,10.828010,0.000442,2.044365,-0.345115,-0.184934,-0.029753,-0.304751,0.426790,0.293705,-0.444934,0.141328,0.195069,-0.045685,1.508447,-0.403339,-0.395963,-0.105604,0.299375,0.077792,-0.059819,0.384320,0.029397,0.328228,0.091591,-0.030841,0.106992,0.044412,0.169814,0.051195,,,,,,,,,,,,,,,,,,,,,,,,,,,,,,,,,,,,,,,,,,,,,,,,,,,,,,,,,,,,,,,,,,,,,,,,,,,,,,,,,,,,,,,,,,,,,,,,,,,,,,,,,,,,,,,,,,,,,,
1690401993.654581,1690401993.654304,0.008038,0.000035,0.000096,-0.011391,-0.011739,-0.012241,0.008001,0.000002,0.105397,-0.020492,0.092030,0.009483,-0.030303,0.011124,-0.032775,127.992615,-13.686296,102.145998,37.408547,-19.661641,132.871876,50.285750,4.481474,0.885651,-0.059796,0.421808,25.668257,0.184732,-0.000241,10.851277,0.000446,2.044259,-0.379162,-0.180104,-0.033916,-0.305708,0.427620,0.297666,-0.434271,0.140340,0.195726,-0.054703,1.534200,-0.410608,-0.397734,-0.102593,0.300264,0.077979,-0.060233,0.385549,0.029456,0.328374,0.091416,-0.030798,0.106408,0.045389,0.169829,0.049845,,,,,,,,,,,,,,,,,,,,,,,,,,,,,,,,,,,,,,,,,,,,,,,,,,,,,,,,,,,,,,,,,,,,,,,,,,,,,,,,,,,,,,,,,,,,,,,,,,,,,,,,,,,,,,,,,,,,,,
1690401993.787820,1690401993.787657,0.008041,0.000038,0.000092,-0.006640,-0.012717,-0.004481,0.007980,-0.000000,0.090617,-0.017646,0.077488,0.009497,-0.036874,0.020554,-0.039562,125.679895,-13.828315,99.573570,38.082146,-19.938113,130.852427,50.114467,5.342226,0.885776,-0.054882,0.421607,26.230480,0.186109,-0.000241,10.874397,0.000449,2.046879,-0.410722,-0.176102,-0.038062,-0.306370,0.430554,0.302194,-0.424102,0.139443,0.196122,-0.063282,1.560101,-0.417638,-0.399550,-0.100416,0.301286,0.078129,-0.060541,0.386748,0.029393,0.329151,0.091257,-0.030790,0.105847,0.046541,0.169656,0.048409,,,,,,,,,,,,,,,,,,,,,,,,,,,,,,,,,,,,,,,,,,,,,,,,,,,,,,,,,,,,,,,,,,,,,,,,,,,,,,,,,,,,,,,,,,,,,,,,,,,,,,,,,,,,,,,,,,,,,,
1690401993.921144,1690401993.920994,0.008048,0.000044,0.000073,0.006891,-0.018185,0.024365,0.007938,0.000002,0.056885,-0.007860,0.045498,0.009552,-0.062763,0.046960,-0.062649,123.711911,-13.933987,97.328906,38.743653,-20.172749,129.155460,50.111900,5.218800,0.886140,-0.054889,0.421511,25.974501,0.184587,-0.000249,10.895489,0.000453,2.049204,-0.440128,-0.172102,-0.042392,-0.306522,0.434756,0.307138,-0.414166,0.138634,0.196248,-0.071565,1.585226,-0.424349,-0.401325,-0.098764,0.302386,0.078285,-0.060789,0.387876,0.029257,0.330355,0.090893,-0.030752,0.104703,0.045395,0.167657,0.047509,,,,,,,,,,,,,,,,,,,,,,,,,,,,,,,,,,,,,,,,,,,,,,,,,,,,,,,,,,,,,,,,,,,,,,,,,,,,,,,,,,,,,,,,,,,,,,,,,,,,,,,,,,,,,,,,,,,,,,
1690401994.054464,1690401994.054320,0.008044,0.000041,0.000083,-0.000385,-0.016587,0.012478,0.007952,-0.000004,0.070537,-0.013927,0.058906,0.009523,-0.050609,0.035952,-0.050454,122.019328,-13.910983,95.277067,39.228979,-20.232625,127.549201,49.656652,6.921293,0.886285,-0.045729,0.420219,27.314494,0.189269,-0.000242,10.919292,0.000445,2.040058,-0.461731,-0.166647,-0.047935,-0.304038,0.440564,0.310595,-0.404679,0.138089,0.195334,-0.078783,1.602907,-0.429173,-0.402624,-0.098191,0.303465,0.078507,-0.060972,0.388548,0.029102,0.332422,0.090939,-0.030867,0.104623,0.048631,0.168143,0.045426,,,,,,,,,,,,,,,,,,,,,,,,,,,,,,,,,,,,,,,,,,,,,,,,,,,,,,,,,,,,,,,,,,,,,,,,,,,,,,,,,,,,,,,,,,,,,,,,,,,,,,,,,,,,,,,,,,,,,,
1690401994.154523,1690401994.154327,0.005860,0.000023,0.000028,0.012184,-0.018293,0.041797,0.005770,0.000008,0.023519,-0.000718,0.017203,0.006988,-0.068108,0.052742,-0.063221,120.518574,-13.833124,93.571241,39.608609,-20.237429,126.253421,49.757416,5.961428,0.886954,-0.050185,0.419781,26.448107,0.185954,-0.000192,10.932358,0.000373,2.025428,-0.481074,-0.159622,-0.052387,-0.302186,0.443983,0.311826,-0.395827,0.137462,0.194683,-0.085444,1.612142,-0.433194,-0.403283,-0.096907,0.304277,0.078689,-0.061193,0.389075,0.028919,0.333481,0.090471,-0.030833,0.103153,0.045698,0.164079,0.045022,,,,,,,,,,,,,,,,,,,,,,,,,,,,,,,,,,,,,,,,,,,,,,,,,,,,,,,,,,,,,,,,,,,,,,,,,,,,,,,,,,,,,,,,,,,,,,,,,,,,,,,,,,,,,,,,,,,,,,
