__time,/odometry/filtered/header/stamp,/odometry/filtered/pose/covariance[0;0],/odometry/filtered/pose/covariance[0;1],/odometry/filtered/pose/covariance[0;2],/odometry/filtered/pose/covariance[0;3],/odometry/filtered/pose/covariance[0;4],/odometry/filtered/pose/covariance[0;5],/odometry/filtered/pose/covariance[1;1],/odometry/filtered/pose/covariance[1;2],/odometry/filtered/pose/covariance[1;3],/odometry/filtered/pose/covariance[1;4],/odometry/filtered/pose/covariance[1;5],/odometry/filtered/pose/covariance[2;2],/odometry/filtered/pose/covariance[2;3],/odometry/filtered/pose/covariance[2;4],/odometry/filtered/pose/covariance[2;5],/odometry/filtered/pose/covariance[3;3],/odometry/filtered/pose/covariance[3;4],/odometry/filtered/pose/covariance[3;5],/odometry/filtered/pose/covariance[4;4],/odometry/filtered/pose/covariance[4;5],/odometry/filtered/pose/covariance[5;5],/odometry/filtered/pose/pose/orientation/pitch_deg,/odometry/filtered/pose/pose/orientation/roll_deg,/odometry/filtered/pose/pose/orientation/w,/odometry/filtered/pose/pose/orientation/x,/odometry/filtered/pose/pose/orientation/y,/odometry/filtered/pose/pose/orientation/yaw_deg,/odometry/filtered/pose/pose/orientation/z,/odometry/filtered/pose/pose/position/x,/odometry/filtered/pose/pose/position/y,/odometry/filtered/pose/pose/position/z,/odometry/filtered/twist/covariance[0;0],/odometry/filtered/twist/covariance[0;1],/odometry/filtered/twist/covariance[0;2],/odometry/filtered/twist/covariance[0;3],/odometry/filtered/twist/covariance[0;4],/odometry/filtered/twist/covariance[0;5],/odometry/filtered/twist/covariance[1;1],/odometry/filtered/twist/covariance[1;2],/odometry/filtered/twist/covariance[1;3],/odometry/filtered/twist/covariance[1;4],/odometry/filtered/twist/covariance[1;5],/odometry/filtered/twist/covariance[2;2],/odometry/filtered/twist/covariance[2;3],/odometry/filtered/twist/covariance[2;4],/odometry/filtered/twist/covariance[2;5],/odometry/filtered/twist/covariance[3;3],/odometry/filtered/twist/covariance[3;4],/odometry/filtered/twist/covariance[3;5],/odometry/filtered/twist/covariance[4;4],/odometry/filtered/twist/covariance[4;5],/odometry/filtered/twist/covariance[5;5],/odometry/filtered/twist/twist/angular/x,/odometry/filtered/twist/twist/angular/y,/odometry/filtered/twist/twist/angular/z,/odometry/filtered/twist/twist/linear/x,/odometry/filtered/twist/twist/linear/y,/odometry/filtered/twist/twist/linear/z,/sys/integrator/wheel_odometry/header/stamp,/sys/integrator/wheel_odometry/pose/covariance[0;0],/sys/integrator/wheel_odometry/pose/covariance[0;1],/sys/integrator/wheel_odometry/pose/covariance[0;2],/sys/integrator/wheel_odometry/pose/covariance[0;3],/sys/integrator/wheel_odometry/pose/covariance[0;4],/sys/integrator/wheel_odometry/pose/covariance[0;5],/sys/integrator/wheel_odometry/pose/covariance[1;1],/sys/integrator/wheel_odometry/pose/covariance[1;2],/sys/integrator/wheel_odometry/pose/covariance[1;3],/sys/integrator/wheel_odometry/pose/covariance[1;4],/sys/integrator/wheel_odometry/pose/covariance[1;5],/sys/integrator/wheel_odometry/pose/covariance[2;2],/sys/integrator/wheel_odometry/pose/covariance[2;3],/sys/integrator/wheel_odometry/pose/covariance[2;4],/sys/integrator/wheel_odometry/pose/covariance[2;5],/sys/integrator/wheel_odometry/pose/covariance[3;3],/sys/integrator/wheel_odometry/pose/covariance[3;4],/sys/integrator/wheel_odometry/pose/covariance[3;5],/sys/integrator/wheel_odometry/pose/covariance[4;4],/sys/integrator/wheel_odometry/pose/covariance[4;5],/sys/integrator/wheel_odometry/pose/covariance[5;5],/sys/integrator/wheel_odometry/pose/pose/orientation/pitch_deg,/sys/integrator/wheel_odometry/pose/pose/orientation/roll_deg,/sys/integrator/wheel_odometry/pose/pose/orientation/w,/sys/integrator/wheel_odometry/pose/pose/orientation/x,/sys/integrator/wheel_odometry/pose/pose/orientation/y,/sys/integrator/wheel_odometry/pose/pose/orientation/yaw_deg,/sys/integrator/wheel_odometry/pose/pose/orientation/z,/sys/integrator/wheel_odometry/pose/pose/position/x,/sys/integrator/wheel_odometry/pose/pose/position/y,/sys/integrator/wheel_odometry/pose/pose/position/z,/sys/integrator/wheel_odometry/twist/covariance[0;0],/sys/integrator/wheel_odometry/twist/covariance[0;1],/sys/integrator/wheel_odometry/twist/covariance[0;2],/sys/integrator/wheel_odometry/twist/covariance[0;3],/sys/integrator/wheel_odometry/twist/covariance[0;4],/sys/integrator/wheel_odometry/twist/covariance[0;5],/sys/integrator/wheel_odometry/twist/covariance[1;1],/sys/integrator/wheel_odometry/twist/covariance[1;2],/sys/integrator/wheel_odometry/twist/covariance[1;3],/sys/integrator/wheel_odometry/twist/covariance[1;4],/sys/integrator/wheel_odometry/twist/covariance[1;5],/sys/integrator/wheel_odometry/twist/covariance[2;2],/sys/integrator/wheel_odometry/twist/covariance[2;3],/sys/integrator/wheel_odometry/twist/covariance[2;4],/sys/integrator/wheel_odometry/twist/covariance[2;5],/sys/integrator/wheel_odometry/twist/covariance[3;3],/sys/integrator/wheel_odometry/twist/covariance[3;4],/sys/integrator/wheel_odometry/twist/covariance[3;5],/sys/integrator/wheel_odometry/twist/covariance[4;4],/sys/integrator/wheel_odometry/twist/covariance[4;5],/sys/integrator/wheel_odometry/twist/covariance[5;5],/sys/integrator/wheel_odometry/twist/twist/angular/x,/sys/integrator/wheel_odometry/twist/twist/angular/y,/sys/integrator/wheel_odometry/twist/twist/angular/z,/sys/integrator/wheel_odometry/twist/twist/linear/x,/sys/integrator/wheel_odometry/twist/twist/linear/y,/sys/integrator/wheel_odometry/twist/twist/linear/z,/triangulation_3D_pose/header/stamp,/triangulation_3D_pose/pose/covariance[0;0],/triangulation_3D_pose/pose/covariance[0;1],/triangulation_3D_pose/pose/covariance[0;2],/triangulation_3D_pose/pose/covariance[0;3],/triangulation_3D_pose/pose/covariance[0;4],/triangulation_3D_pose/pose/covariance[0;5],/triangulation_3D_pose/pose/covariance[1;1],/triangulation_3D_pose/pose/covariance[1;2],/triangulation_3D_pose/pose/covariance[1;3],/triangulation_3D_pose/pose/covariance[1;4],/triangulation_3D_pose/pose/covariance[1;5],/triangulation_3D_pose/pose/covariance[2;2],/triangulation_3D_pose/pose/covariance[2;3],/triangulation_3D_pose/pose/covariance[2;4],/triangulation_3D_pose/pose/covariance[2;5],/triangulation_3D_pose/pose/covariance[3;3],/triangulation_3D_pose/pose/covariance[3;4],/triangulation_3D_pose/pose/covariance[3;5],/triangulation_3D_pose/pose/covariance[4;4],/triangulation_3D_pose/pose/covariance[4;5],/triangulation_3D_pose/pose/covariance[5;5],/triangulation_3D_pose/pose/pose/orientation/pitch_deg,/triangulation_3D_pose/pose/pose/orientation/roll_deg,/triangulation_3D_pose/pose/pose/orientation/w,/triangulation_3D_pose/pose/pose/orientation/x,/triangulation_3D_pose/pose/pose/orientation/y,/triangulation_3D_pose/pose/pose/orientation/yaw_deg,/triangulation_3D_pose/pose/pose/orientation/z,/triangulation_3D_pose/pose/pose/position/x,/triangulation_3D_pose/pose/pose/position/y,/triangulation_3D_pose/pose/pose/position/z,/triangulation_3D_pose/twist/covariance[0;0],/triangulation_3D_pose/twist/covariance[0;1],/triangulation_3D_pose/twist/covariance[0;2],/triangulation_3D_pose/twist/covariance[0;3],/triangulation_3D_pose/twist/covariance[0;4],/triangulation_3D_pose/twist/covariance[0;5],/triangulation_3D_pose/twist/covariance[1;1],/triangulation_3D_pose/twist/covariance[1;2],/triangulation_3D_pose/twist/covariance[1;3],/triangulation_3D_pose/twist/covariance[1;4],/triangulation_3D_pose/twist/covariance[1;5],/triangulation_3D_pose/twist/covariance[2;2],/triangulation_3D_pose/twist/covariance[2;3],/triangulation_3D_pose/twist/covariance[2;4],/triangulation_3D_pose/twist/covariance[2;5],/triangulation_3D_pose/twist/covariance[3;3],/triangulation_3D_pose/twist/covariance[3;4],/triangulation_3D_pose/twist/covariance[3;5],/triangulation_3D_pose/twist/covariance[4;4],/triangulation_3D_pose/twist/covariance[4;5],/triangulation_3D_pose/twist/covariance[5;5],/triangulation_3D_pose/twist/twist/angular/x,/triangulation_3D_pose/twist/twist/angular/y,/triangulation_3D_pose/twist/twist/angular/z,/triangulation_3D_pose/twist/twist/linear/x,/triangulation_3D_pose/twist/twist/linear/y,/triangulation_3D_pose/twist/twist/linear/z
1690401970.039174,,,,,,,,,,,,,,,,,,,,,,,,,,,,,,,,,,,,,,,,,,,,,,,,,,,,,,,,,,,,1678344381.089501,0.000200,0.000000,0.000000,0.000000,0.000000,0.000000,0.000200,0.000000,0.000000,0.000000,0.000000,0.000200,0.000000,0.000000,0.000000,0.000200,0.000000,0.000000,0.000200,0.000000,0.000200,0.000000,0.000000,0.997831,0.000000,0.000000,-7.548549,-0.065826,0.000000,7.015464,0.000000,0.000200,0.000000,0.000000,0.000000,0.000000,0.000000,0.000200,0.000000,0.000000,0.000000,0.000000,0.000200,0.000000,0.000000,0.000000,0.000200,0.000000,0.000000,0.000200,0.000000,0.000200,0.000000,0.000000,-0.019429,0.000000,0.075136,0.000000,,,,,,,,,,,,,,,,,,,,,,,,,,,,,,,,,,,,,,,,,,,,,,,,,,,,,,,,,,,
1690401970.086064,,,,,,,,,,,,,,,,,,,,,,,,,,,,,,,,,,,,,,,,,,,,,,,,,,,,,,,,,,,,,,,,,,,,,,,,,,,,,,,,,,,,,,,,,,,,,,,,,,,,,,,,,,,,,,,,,,,,,,,1678315326.149659,0.000200,0.000000,0.000000,0.000000,0.000000,0.000000,0.000200,0.000000,0.000000,0.000000,0.000000,0.000200,0.000000,0.000000,0.000000,0.000000,0.000000,0.000000,0.000000,0.000000,0.000000,0.000000,0.000000,1.000000,0.000000,0.000000,0.000000,0.000000,-0.077847,7.024203,0.273376,0.000000,0.000000,0.000000,0.000000,0.000000,0.000000,0.000000,0.000000,0.000000,0.000000,0.000000,0.000000,0.000000,0.000000,0.000000,0.000000,0.000000,0.000000,0.000000,0.000000,0.000000,0.000000,0.000000,0.000000,0.000000,0.000000,0.000000
1690401970.090973,,,,,,,,,,,,,,,,,,,,,,,,,,,,,,,,,,,,,,,,,,,,,,,,,,,,,,,,,,,,1678344381.134569,0.000200,0.000000,0.000000,0.000000,0.000000,0.000000,0.000200,0.000000,0.000000,0.000000,0.000000,0.000200,0.000000,0.000000,0.000000,0.000200,0.000000,0.000000,0.000200,0.000000,0.000200,0.000000,0.000000,0.997805,0.000000,0.000000,-7.593750,-0.066219,0.000000,7.020373,0.000000,0.000200,0.000000,0.000000,0.000000,0.000000,0.000000,0.000200,0.000000,0.000000,0.000000,0.000000,0.000200,0.000000,0.000000,0.000000,0.000200,0.000000,0.000000,0.000200,0.000000,0.000200,0.000000,0.000000,-0.031136,0.000000,0.083039,0.000000,,,,,,,,,,,,,,,,,,,,,,,,,,,,,,,,,,,,,,,,,,,,,,,,,,,,,,,,,,,
1690401970.121152,1690401970.120993,0.008220,-0.000042,-0.000087,-0.040283,-0.035771,0.061711,0.007992,-0.000122,0.033032,-0.019773,-0.028418,0.009615,-0.042193,0.032180,0.031791,26.804034,7.029240,-23.432211,19.193220,-8.618507,28.308991,-48.662275,143.965042,0.146174,0.863214,0.148049,36.197415,0.459973,-0.000352,7.025297,-0.000528,0.146594,0.049420,-0.002368,-0.023315,0.028629,-0.061051,0.108910,-0.022576,-0.015539,0.004199,-0.058280,0.170296,-0.010227,0.054911,0.054420,0.192879,0.047022,-0.024664,0.240380,-0.009242,0.218244,0.129662,-0.042456,0.200548,0.023941,-0.068247,-0.008906,,,,,,,,,,,,,,,,,,,,,,,,,,,,,,,,,,,,,,,,,,,,,,,,,,,,,,,,,,,,,,,,,,,,,,,,,,,,,,,,,,,,,,,,,,,,,,,,,,,,,,,,,,,,,,,,,,,,,,
1690401970.130021,,,,,,,,,,,,,,,,,,,,,,,,,,,,,,,,,,,,,,,,,,,,,,,,,,,,,,,,,,,,1678344381.180238,0.000200,0.000000,0.000000,0.000000,0.000000,0.000000,0.000200,0.000000,0.000000,0.000000,0.000000,0.000200,0.000000,0.000000,0.000000,0.000200,0.000000,0.000000,0.000200,0.000000,0.000200,0.000000,0.000000,0.997934,0.000000,0.000000,-7.367746,-0.064251,0.000000,7.023179,0.000000,0.000200,0.000000,0.000000,0.000000,0.000000,0.000000,0.000200,0.000000,0.000000,0.000000,0.000000,0.000200,0.000000,0.000000,0.000000,0.000200,0.000000,0.000000,0.000200,0.000000,0.000200,0.000000,0.000000,-0.007773,0.000000,0.079471,0.000000,,,,,,,,,,,,,,,,,,,,,,,,,,,,,,,,,,,,,,,,,,,,,,,,,,,,,,,,,,,
1690401970.175579,,,,,,,,,,,,,,,,,,,,,,,,,,,,,,,,,,,,,,,,,,,,,,,,,,,,,,,,,,,,1678344381.226757,0.000200,0.000000,0.000000,0.000000,0.000000,0.000000,0.000200,0.000000,0.000000,0.000000,0.000000,0.000200,0.000000,0.000000,0.000000,0.000200,0.000000,0.000000,0.000200,0.000000,0.000200,0.000000,0.000000,0.997699,0.000000,0.000000,-7.774553,-0.067794,0.000000,7.028789,0.000000,0.000200,0.000000,0.000000,0.000000,0.000000,0.000000,0.000200,0.000000,0.000000,0.000000,0.000000,0.000200,0.000000,0.000000,0.000000,0.000200,0.000000,0.000000,0.000200,0.000000,0.000200,0.000000,0.000000,-0.034817,0.000000,0.088559,0.000000,,,,,,,,,,,,,,,,,,,,,,,,,,,,,,,,,,,,,,,,,,,,,,,,,,,,,,,,,,,
1690401970.183952,,,,,,,,,,,,,,,,,,,,,,,,,,,,,,,,,,,,,,,,,,,,,,,,,,,,,,,,,,,,,,,,,,,,,,,,,,,,,,,,,,,,,,,,,,,,,,,,,,,,,,,,,,,,,,,,,,,,,,,1678315326.249919,0.000200,0.000000,0.000000,0.000000,0.000000,0.000000,0.000200,0.000000,0.000000,0.000000,0.000000,0.000200,0.000000,0.000000,0.000000,0.000000,0.000000,0.000000,0.000000,0.000000,0.000000,0.000000,0.000000,1.000000,0.000000,0.000000,0.000000,0.000000,-0.078384,7.033104,0.273273,0.000000,0.000000,0.000000,0.000000,0.000000,0.000000,0.000000,0.000000,0.000000,0.000000,0.000000,0.000000,0.000000,0.000000,0.000000,0.000000,0.000000,0.000000,0.000000,0.000000,0.000000,0.000000,0.000000,0.000000,0.000000,0.000000,0.000000
1690401970.218997,,,,,,,,,,,,,,,,,,,,,,,,,,,,,,,,,,,,,,,,,,,,,,,,,,,,,,,,,,,,1678344381.269833,0.000200,0.000000,0.000000,0.000000,0.000000,0.000000,0.000200,0.000000,0.000000,0.000000,0.000000,0.000200,0.000000,0.000000,0.000000,0.000200,0.000000,0.000000,0.000200,0.000000,0.000200,0.000000,0.000000,0.997618,0.000000,0.000000,-7.910156,-0.068974,0.000000,7.034400,0.000000,0.000200,0.000000,0.000000,0.000000,0.000000,0.000000,0.000200,0.000000,0.000000,0.000000,0.000000,0.000200,0.000000,0.000000,0.000000,0.000200,0.000000,0.000000,0.000200,0.000000,0.000200,0.000000,0.000000,-0.027191,0.000000,0.092374,0.000000,,,,,,,,,,,,,,,,,,,,,,,,,,,,,,,,,,,,,,,,,,,,,,,,,,,,,,,,,,,
1690401970.254540,1690401970.254326,0.008143,-0.000037,-0.000090,-0.033757,-0.030091,0.045585,0.007993,-0.000091,0.034923,-0.018694,-0.030680,0.009527,-0.030392,0.023187,0.023794,26.660922,6.556221,-23.153070,19.338122,-8.135774,27.956860,-49.766342,147.198019,0.128734,0.867507,0.137440,33.553252,0.460402,-0.000426,7.038970,-0.000729,0.141307,0.042551,-0.005013,-0.020091,0.028432,-0.060636,0.100617,-0.018952,-0.013985,0.004121,-0.051482,0.158144,-0.003710,0.053900,0.049383,0.193141,0.047543,-0.024800,0.241424,-0.009478,0.218318,0.129890,-0.042438,0.201828,0.021502,-0.073336,-0.007562,,,,,,,,,,,,,,,,,,,,,,,,,,,,,,,,,,,,,,,,,,,,,,,,,,,,,,,,,,,,,,,,,,,,,,,,,,,,,,,,,,,,,,,,,,,,,,,,,,,,,,,,,,,,,,,,,,,,,,
1690401970.265703,,,,,,,,,,,,,,,,,,,,,,,,,,,,,,,,,,,,,,,,,,,,,,,,,,,,,,,,,,,,1678344381.315513,0.000200,0.000000,0.000000,0.000000,0.000000,0.000000,0.000200,0.000000,0.000000,0.000000,0.000000,0.000200,0.000000,0.000000,0.000000,0.000200,0.000000,0.000000,0.000200,0.000000,0.000200,0.000000,0.000000,0.997591,0.000000,0.000000,-7.955357,-0.069368,0.000000,7.037205,0.000000,0.000200,0.000000,0.000000,0.000000,0.000000,0.000000,0.000200,0.000000,0.000000,0.000000,0.000000,0.000200,0.000000,0.000000,0.000000,0.000200,0.000000,0.000000,0.000200,0.000000,0.000200,0.000000,0.000000,-0.027208,0.000000,0.088114,0.000000,,,,,,,,,,,,,,,,,,,,,,,,,,,,,,,,,,,,,,,,,,,,,,,,,,,,,,,,,,,
1690401970.310876,,,,,,,,,,,,,,,,,,,,,,,,,,,,,,,,,,,,,,,,,,,,,,,,,,,,,,,,,,,,1678344381.360395,0.000200,0.000000,0.000000,0.000000,0.000000,0.000000,0.000200,0.000000,0.000000,0.000000,0.000000,0.000200,0.000000,0.000000,0.000000,0.000200,0.000000,0.000000,0.000200,0.000000,0.000200,0.000000,0.000000,0.997536,0.000000,0.000000,-8.045759,-0.070155,0.000000,7.042816,0.000000,0.000200,0.000000,0.000000,0.000000,0.000000,0.000000,0.000200,0.000000,0.000000,0.000000,0.000000,0.000200,0.000000,0.000000,0.000000,0.000200,0.000000,0.000000,0.000200,0.000000,0.000200,0.000000,0.000000,-0.042818,0.000000,0.096892,0.000000,,,,,,,,,,,,,,,,,,,,,,,,,,,,,,,,,,,,,,,,,,,,,,,,,,,,,,,,,,,
1690401970.330385,,,,,,,,,,,,,,,,,,,,,,,,,,,,,,,,,,,,,,,,,,,,,,,,,,,,,,,,,,,,,,,,,,,,,,,,,,,,,,,,,,,,,,,,,,,,,,,,,,,,,,,,,,,,,,,,,,,,,,,1678315326.398124,0.000200,0.000000,0.000000,0.000000,0.000000,0.000000,0.000200,0.000000,0.000000,0.000000,0.000000,0.000200,0.000000,0.000000,0.000000,0.000000,0.000000,0.000000,0.000000,0.000000,0.000000,0.000000,0.000000,1.000000,0.000000,0.000000,0.000000,0.000000,-0.078339,7.042058,0.273035,0.000000,0.000000,0.000000,0.000000,0.000000,0.000000,0.000000,0.000000,0.000000,0.000000,0.000000,0.000000,0.000000,0.000000,0.000000,0.000000,0.000000,0.000000,0.000000,0.000000,0.000000,0.000000,0.000000,0.000000,0.000000,0.000000,0.000000
1690401970.354903,1690401970.354323,0.005873,-0.000018,-0.000051,-0.020767,-0.018213,0.025838,0.005805,-0.000038,0.025510,-0.012442,-0.022762,0.006902,-0.017982,0.012911,0.014604,26.540191,6.141675,-22.937899,19.442520,-7.746644,27.725305,-50.316597,149.276356,0.118089,0.870198,0.131208,31.853759,0.459995,-0.000351,7.047757,-0.000601,0.135519,0.037186,-0.006583,-0.017709,0.028519,-0.060854,0.091874,-0.016203,-0.012599,0.004022,-0.045777,0.147424,0.001574,0.053730,0.045966,0.193290,0.047802,-0.024944,0.242339,-0.009542,0.218422,0.129866,-0.042418,0.202132,0.019780,-0.075106,-0.006576,,,,,,,,,,,,,,,,,,,,,,,,,,,,,,,,,,,,,,,,,,,,,,,,,,,,,,,,,,,,,,,,,,,,,,,,,,,,,,,,,,,,,,,,,,,,,,,,,,,,,,,,,,,,,,,,,,,,,,
1690401970.354946,,,,,,,,,,,,,,,,,,,,,,,,,,,,,,,,,,,,,,,,,,,,,,,,,,,,,,,,,,,,1678344381.405309,0.000200,0.000000,0.000000,0.000000,0.000000,0.000000,0.000200,0.000000,0.000000,0.000000,0.000000,0.000200,0.000000,0.000000,0.000000,0.000200,0.000000,0.000000,0.000200,0.000000,0.000200,0.000000,0.000000,0.997699,0.000000,0.000000,-7.774553,-0.067794,0.000000,7.045972,0.000000,0.000200,0.000000,0.000000,0.000000,0.000000,0.000000,0.000200,0.000000,0.000000,0.000000,0.000000,0.000200,0.000000,0.000000,0.000000,0.000200,0.000000,0.000000,0.000200,0.000000,0.000200,0.000000,0.000000,-0.015555,0.000000,0.092480,0.000000,,,,,,,,,,,,,,,,,,,,,,,,,,,,,,,,,,,,,,,,,,,,,,,,,,,,,,,,,,,
1690401970.400266,,,,,,,,,,,,,,,,,,,,,,,,,,,,,,,,,,,,,,,,,,,,,,,,,,,,,,,,,,,,1678344381.450622,0.000200,0.000000,0.000000,0.000000,0.000000,0.000000,0.000200,0.000000,0.000000,0.000000,0.000000,0.000200,0.000000,0.000000,0.000000,0.000200,0.000000,0.000000,0.000200,0.000000,0.000200,0.000000,0.000000,0.997424,0.000000,0.000000,-8.226562,-0.071729,0.000000,7.051934,0.000000,0.000200,0.000000,0.000000,0.000000,0.000000,0.000000,0.000200,0.000000,0.000000,0.000000,0.000000,0.000200,0.000000,0.000000,0.000000,0.000200,0.000000,0.000000,0.000200,0.000000,0.000200,0.000000,0.000000,-0.042700,0.000000,0.100939,0.000000,,,,,,,,,,,,,,,,,,,,,,,,,,,,,,,,,,,,,,,,,,,,,,,,,,,,,,,,,,,
1690401970.429018,,,,,,,,,,,,,,,,,,,,,,,,,,,,,,,,,,,,,,,,,,,,,,,,,,,,,,,,,,,,,,,,,,,,,,,,,,,,,,,,,,,,,,,,,,,,,,,,,,,,,,,,,,,,,,,,,,,,,,,1678315326.496677,0.000200,0.000000,0.000000,0.000000,0.000000,0.000000,0.000200,0.000000,0.000000,0.000000,0.000000,0.000200,0.000000,0.000000,0.000000,0.000000,0.000000,0.000000,0.000000,0.000000,0.000000,0.000000,0.000000,1.000000,0.000000,0.000000,0.000000,0.000000,-0.078373,7.051688,0.272740,0.000000,0.000000,0.000000,0.000000,0.000000,0.000000,0.000000,0.000000,0.000000,0.000000,0.000000,0.000000,0.000000,0.000000,0.000000,0.000000,0.000000,0.000000,0.000000,0.000000,0.000000,0.000000,0.000000,0.000000,0.000000,0.000000,0.000000
1690401970.444302,,,,,,,,,,,,,,,,,,,,,,,,,,,,,,,,,,,,,,,,,,,,,,,,,,,,,,,,,,,,1678344381.495076,0.000200,0.000000,0.000000,0.000000,0.000000,0.000000,0.000200,0.000000,0.000000,0.000000,0.000000,0.000200,0.000000,0.000000,0.000000,0.000200,0.000000,0.000000,0.000200,0.000000,0.000200,0.000000,0.000000,0.997367,0.000000,0.000000,-8.316964,-0.072516,0.000000,7.057895,0.000000,0.000200,0.000000,0.000000,0.000000,0.000000,0.000000,0.000200,0.000000,0.000000,0.000000,0.000000,0.000200,0.000000,0.000000,0.000000,0.000200,0.000000,0.000000,0.000200,0.000000,0.000200,0.000000,0.000000,-0.033068,0.000000,0.104619,0.000000,,,,,,,,,,,,,,,,,,,,,,,,,,,,,,,,,,,,,,,,,,,,,,,,,,,,,,,,,,,
1690401970.479137,,,,,,,,,,,,,,,,,,,,,,,,,,,,,,,,,,,,,,,,,,,,,,,,,,,,,,,,,,,,,,,,,,,,,,,,,,,,,,,,,,,,,,,,,,,,,,,,,,,,,,,,,,,,,,,,,,,,,,,1678315326.546269,0.000200,0.000000,0.000000,0.000000,0.000000,0.000000,0.000200,0.000000,0.000000,0.000000,0.000000,0.000200,0.000000,0.000000,0.000000,0.000000,0.000000,0.000000,0.000000,0.000000,0.000000,0.000000,0.000000,1.000000,0.000000,0.000000,0.000000,0.000000,-0.078199,7.061564,0.272524,0.000000,0.000000,0.000000,0.000000,0.000000,0.000000,0.000000,0.000000,0.000000,0.000000,0.000000,0.000000,0.000000,0.000000,0.000000,0.000000,0.000000,0.000000,0.000000,0.000000,0.000000,0.000000,0.000000,0.000000,0.000000,0.000000,0.000000
1690401970.488364,1690401970.487655,0.008078,-0.000026,-0.000097,-0.023323,-0.020159,0.022002,0.007981,-0.000044,0.036111,-0.015257,-0.032860,0.009454,-0.012312,0.012040,0.010833,26.671095,5.486368,-22.933687,19.728072,-7.189133,27.718732,-51.315301,152.999389,0.099515,0.874196,0.119308,28.700398,0.460047,-0.000533,7.062909,-0.000957,0.136938,0.033457,-0.008370,-0.015832,0.029023,-0.062166,0.089865,-0.014181,-0.011728,0.004015,-0.041462,0.145816,0.006520,0.054431,0.043493,0.194132,0.047923,-0.025083,0.243640,-0.009552,0.219954,0.130228,-0.042458,0.203727,0.017400,-0.081346,-0.005255,,,,,,,,,,,,,,,,,,,,,,,,,,,,,,,,,,,,,,,,,,,,,,,,,,,,,,,,,,,,,,,,,,,,,,,,,,,,,,,,,,,,,,,,,,,,,,,,,,,,,,,,,,,,,,,,,,,,,,
1690401970.489270,,,,,,,,,,,,,,,,,,,,,,,,,,,,,,,,,,,,,,,,,,,,,,,,,,,,,,,,,,,,1678344381.540524,0.000200,0.000000,0.000000,0.000000,0.000000,0.000000,0.000200,0.000000,0.000000,0.000000,0.000000,0.000200,0.000000,0.000000,0.000000,0.000200,0.000000,0.000000,0.000200,0.000000,0.000200,0.000000,0.000000,0.997339,0.000000,0.000000,-8.362165,-0.072909,0.000000,7.060700,0.000000,0.000200,0.000000,0.000000,0.000000,0.000000,0.000000,0.000200,0.000000,0.000000,0.000000,0.000000,0.000200,0.000000,0.000000,0.000000,0.000200,0.000000,0.000000,0.000200,0.000000,0.000200,0.000000,0.000000,-0.033037,0.000000,0.099338,0.000000,,,,,,,,,,,,,,,,,,,,,,,,,,,,,,,,,,,,,,,,,,,,,,,,,,,,,,,,,,,
1690401970.537774,,,,,,,,,,,,,,,,,,,,,,,,,,,,,,,,,,,,,,,,,,,,,,,,,,,,,,,,,,,,1678344381.585638,0.000200,0.000000,0.000000,0.000000,0.000000,0.000000,0.000200,0.000000,0.000000,0.000000,0.000000,0.000200,0.000000,0.000000,0.000000,0.000200,0.000000,0.000000,0.000200,0.000000,0.000200,0.000000,0.000000,0.997281,0.000000,0.000000,-8.452567,-0.073696,0.000000,7.066662,0.000000,0.000200,0.000000,0.000000,0.000000,0.000000,0.000000,0.000200,0.000000,0.000000,0.000000,0.000000,0.000200,0.000000,0.000000,0.000000,0.000200,0.000000,0.000000,0.000200,0.000000,0.000200,0.000000,0.000000,-0.046704,0.000000,0.107259,0.000000,,,,,,,,,,,,,,,,,,,,,,,,,,,,,,,,,,,,,,,,,,,,,,,,,,,,,,,,,,,
1690401970.577224,,,,,,,,,,,,,,,,,,,,,,,,,,,,,,,,,,,,,,,,,,,,,,,,,,,,,,,,,,,,,,,,,,,,,,,,,,,,,,,,,,,,,,,,,,,,,,,,,,,,,,,,,,,,,,,,,,,,,,,1678315326.645072,0.000200,0.000000,0.000000,0.000000,0.000000,0.000000,0.000200,0.000000,0.000000,0.000000,0.000000,0.000200,0.000000,0.000000,0.000000,0.000000,0.000000,0.000000,0.000000,0.000000,0.000000,0.000000,0.000000,1.000000,0.000000,0.000000,0.000000,0.000000,-0.077551,7.071816,0.272119,0.000000,0.000000,0.000000,0.000000,0.000000,0.000000,0.000000,0.000000,0.000000,0.000000,0.000000,0.000000,0.000000,0.000000,0.000000,0.000000,0.000000,0.000000,0.000000,0.000000,0.000000,0.000000,0.000000,0.000000,0.000000,0.000000,0.000000
1690401970.578223,,,,,,,,,,,,,,,,,,,,,,,,,,,,,,,,,,,,,,,,,,,,,,,,,,,,,,,,,,,,1678344381.629449,0.000200,0.000000,0.000000,0.000000,0.000000,0.000000,0.000200,0.000000,0.000000,0.000000,0.000000,0.000200,0.000000,0.000000,0.000000,0.000200,0.000000,0.000000,0.000200,0.000000,0.000200,0.000000,0.000000,0.997508,0.000000,0.000000,-8.090959,-0.070548,0.000000,7.069116,0.000000,0.000200,0.000000,0.000000,0.000000,0.000000,0.000000,0.000200,0.000000,0.000000,0.000000,0.000000,0.000200,0.000000,0.000000,0.000000,0.000200,0.000000,0.000000,0.000200,0.000000,0.000200,0.000000,0.000000,-0.013714,0.000000,0.100143,0.000000,,,,,,,,,,,,,,,,,,,,,,,,,,,,,,,,,,,,,,,,,,,,,,,,,,,,,,,,,,,
1690401970.621830,1690401970.620989,0.008068,-0.000019,-0.000102,-0.017963,-0.014232,0.010858,0.007971,-0.000025,0.035623,-0.012733,-0.033063,0.009442,-0.003295,0.007745,0.003996,26.804758,4.746917,-22.920814,19.982328,-6.569094,27.703134,-52.011049,156.447568,0.083144,0.877648,0.108867,25.756878,0.459315,-0.000580,7.076958,-0.001016,0.136849,0.029369,-0.009810,-0.014066,0.029767,-0.064063,0.085408,-0.012007,-0.010621,0.003974,-0.036431,0.142790,0.011965,0.055767,0.041374,0.194899,0.047926,-0.025298,0.244971,-0.009495,0.221343,0.130417,-0.042503,0.204708,0.015170,-0.085584,-0.003972,,,,,,,,,,,,,,,,,,,,,,,,,,,,,,,,,,,,,,,,,,,,,,,,,,,,,,,,,,,,,,,,,,,,,,,,,,,,,,,,,,,,,,,,,,,,,,,,,,,,,,,,,,,,,,,,,,,,,,
1690401970.627154,,,,,,,,,,,,,,,,,,,,,,,,,,,,,,,,,,,,,,,,,,,,,,,,,,,,,,,,,,,,1678344381.676307,0.000200,0.000000,0.000000,0.000000,0.000000,0.000000,0.000200,0.000000,0.000000,0.000000,0.000000,0.000200,0.000000,0.000000,0.000000,0.000200,0.000000,0.000000,0.000200,0.000000,0.000200,0.000000,0.000000,0.997252,0.000000,0.000000,-8.497768,-0.074089,0.000000,7.075078,0.000000,0.000200,0.000000,0.000000,0.000000,0.000000,0.000000,0.000200,0.000000,0.000000,0.000000,0.000000,0.000200,0.000000,0.000000,0.000000,0.000200,0.000000,0.000000,0.000200,0.000000,0.000200,0.000000,0.000000,-0.025231,0.000000,0.100074,0.000000,,,,,,,,,,,,,,,,,,,,,,,,,,,,,,,,,,,,,,,,,,,,,,,,,,,,,,,,,,,
1690401970.670616,,,,,,,,,,,,,,,,,,,,,,,,,,,,,,,,,,,,,,,,,,,,,,,,,,,,,,,,,,,,1678344381.721387,0.000200,0.000000,0.000000,0.000000,0.000000,0.000000,0.000200,0.000000,0.000000,0.000000,0.000000,0.000200,0.000000,0.000000,0.000000,0.000200,0.000000,0.000000,0.000200,0.000000,0.000200,0.000000,0.000000,0.997281,0.000000,0.000000,-8.452567,-0.073696,0.000000,7.080338,0.000000,0.000200,0.000000,0.000000,0.000000,0.000000,0.000000,0.000200,0.000000,0.000000,0.000000,0.000000,0.000200,0.000000,0.000000,0.000000,0.000200,0.000000,0.000000,0.000200,0.000000,0.000200,0.000000,0.000000,-0.021381,0.000000,0.106270,0.000000,,,,,,,,,,,,,,,,,,,,,,,,,,,,,,,,,,,,,,,,,,,,,,,,,,,,,,,,,,,
1690401970.714940,,,,,,,,,,,,,,,,,,,,,,,,,,,,,,,,,,,,,,,,,,,,,,,,,,,,,,,,,,,,1678344381.766067,0.000200,0.000000,0.000000,0.000000,0.000000,0.000000,0.000200,0.000000,0.000000,0.000000,0.000000,0.000200,0.000000,0.000000,0.000000,0.000200,0.000000,0.000000,0.000200,0.000000,0.000200,0.000000,0.000000,0.997508,0.000000,0.000000,-8.090959,-0.070548,0.000000,7.083143,0.000000,0.000200,0.000000,0.000000,0.000000,0.000000,0.000000,0.000200,0.000000,0.000000,0.000000,0.000000,0.000200,0.000000,0.000000,0.000000,0.000200,0.000000,0.000000,0.000200,0.000000,0.000200,0.000000,0.000000,-0.001945,0.000000,0.099407,0.000000,,,,,,,,,,,,,,,,,,,,,,,,,,,,,,,,,,,,,,,,,,,,,,,,,,,,,,,,,,,
1690401970.725745,,,,,,,,,,,,,,,,,,,,,,,,,,,,,,,,,,,,,,,,,,,,,,,,,,,,,,,,,,,,,,,,,,,,,,,,,,,,,,,,,,,,,,,,,,,,,,,,,,,,,,,,,,,,,,,,,,,,,,,1678315326.793734,0.000200,0.000000,0.000000,0.000000,0.000000,0.000000,0.000200,0.000000,0.000000,0.000000,0.000000,0.000200,0.000000,0.000000,0.000000,0.000000,0.000000,0.000000,0.000000,0.000000,0.000000,0.000000,0.000000,1.000000,0.000000,0.000000,0.000000,0.000000,-0.076903,7.082140,0.271728,0.000000,0.000000,0.000000,0.000000,0.000000,0.000000,0.000000,0.000000,0.000000,0.000000,0.000000,0.000000,0.000000,0.000000,0.000000,0.000000,0.000000,0.000000,0.000000,0.000000,0.000000,0.000000,0.000000,0.000000,0.000000,0.000000,0.000000
1690401970.754540,1690401970.754326,0.008069,-0.000011,-0.000106,-0.013308,-0.008213,0.001037,0.007962,-0.000011,0.034551,-0.010080,-0.032696,0.009441,0.005599,0.004680,-0.003041,27.015133,3.931610,-22.960315,20.229034,-5.884920,27.716153,-52.570175,160.033698,0.066753,0.880906,0.098145,22.652169,0.458165,-0.000618,7.091484,-0.001037,0.137917,0.025736,-0.011040,-0.012672,0.030672,-0.066448,0.081832,-0.010050,-0.009590,0.003946,-0.031755,0.141637,0.017149,0.057495,0.039889,0.195796,0.047866,-0.025565,0.246284,-0.009426,0.222912,0.130638,-0.042568,0.205689,0.012986,-0.089922,-0.002669,,,,,,,,,,,,,,,,,,,,,,,,,,,,,,,,,,,,,,,,,,,,,,,,,,,,,,,,,,,,,,,,,,,,,,,,,,,,,,,,,,,,,,,,,,,,,,,,,,,,,,,,,,,,,,,,,,,,,,
1690401970.761443,,,,,,,,,,,,,,,,,,,,,,,,,,,,,,,,,,,,,,,,,,,,,,,,,,,,,,,,,,,,1678344381.811382,0.000200,0.000000,0.000000,0.000000,0.000000,0.000000,0.000200,0.000000,0.000000,0.000000,0.000000,0.000200,0.000000,0.000000,0.000000,0.000200,0.000000,0.000000,0.000200,0.000000,0.000200,0.000000,0.000000,0.997310,0.000000,0.000000,-8.407366,-0.073302,0.000000,7.088403,0.000000,0.000200,0.000000,0.000000,0.000000,0.000000,0.000000,0.000200,0.000000,0.000000,0.000000,0.000000,0.000200,0.000000,0.000000,0.000000,0.000200,0.000000,0.000000,0.000200,0.000000,0.000200,0.000000,0.000000,-0.027199,0.000000,0.104491,0.000000,,,,,,,,,,,,,,,,,,,,,,,,,,,,,,,,,,,,,,,,,,,,,,,,,,,,,,,,,,,
1690401970.803762,,,,,,,,,,,,,,,,,,,,,,,,,,,,,,,,,,,,,,,,,,,,,,,,,,,,,,,,,,,,1678344381.855568,0.000200,0.000000,0.000000,0.000000,0.000000,0.000000,0.000200,0.000000,0.000000,0.000000,0.000000,0.000200,0.000000,0.000000,0.000000,0.000200,0.000000,0.000000,0.000200,0.000000,0.000200,0.000000,0.000000,0.997564,0.000000,0.000000,-8.000558,-0.069761,0.000000,7.091208,0.000000,0.000200,0.000000,0.000000,0.000000,0.000000,0.000000,0.000200,0.000000,0.000000,0.000000,0.000000,0.000200,0.000000,0.000000,0.000000,0.000200,0.000000,0.000000,0.000200,0.000000,0.000200,0.000000,0.000000,0.009741,0.000000,0.096988,0.000000,,,,,,,,,,,,,,,,,,,,,,,,,,,,,,,,,,,,,,,,,,,,,,,,,,,,,,,,,,,
1690401970.825468,,,,,,,,,,,,,,,,,,,,,,,,,,,,,,,,,,,,,,,,,,,,,,,,,,,,,,,,,,,,,,,,,,,,,,,,,,,,,,,,,,,,,,,,,,,,,,,,,,,,,,,,,,,,,,,,,,,,,,,1678315326.893238,0.000200,0.000000,0.000000,0.000000,0.000000,0.000000,0.000200,0.000000,0.000000,0.000000,0.000000,0.000200,0.000000,0.000000,0.000000,0.000000,0.000000,0.000000,0.000000,0.000000,0.000000,0.000000,0.000000,1.000000,0.000000,0.000000,0.000000,0.000000,-0.077029,7.092999,0.271466,0.000000,0.000000,0.000000,0.000000,0.000000,0.000000,0.000000,0.000000,0.000000,0.000000,0.000000,0.000000,0.000000,0.000000,0.000000,0.000000,0.000000,0.000000,0.000000,0.000000,0.000000,0.000000,0.000000,0.000000,0.000000,0.000000,0.000000
1690401970.852121,,,,,,,,,,,,,,,,,,,,,,,,,,,,,,,,,,,,,,,,,,,,,,,,,,,,,,,,,,,,1678344381.901820,0.000200,0.000000,0.000000,0.000000,0.000000,0.000000,0.000200,0.000000,0.000000,0.000000,0.000000,0.000200,0.000000,0.000000,0.000000,0.000200,0.000000,0.000000,0.000200,0.000000,0.000200,0.000000,0.000000,0.997396,0.000000,0.000000,-8.271763,-0.072122,0.000000,7.096468,0.000000,0.000200,0.000000,0.000000,0.000000,0.000000,0.000000,0.000200,0.000000,0.000000,0.000000,0.000000,0.000200,0.000000,0.000000,0.000000,0.000200,0.000000,0.000000,0.000200,0.000000,0.000200,0.000000,0.000000,0.001940,0.000000,0.094835,0.000000,,,,,,,,,,,,,,,,,,,,,,,,,,,,,,,,,,,,,,,,,,,,,,,,,,,,,,,,,,,
1690401970.887795,1690401970.887636,0.008067,-0.000005,-0.000107,-0.009711,-0.003215,-0.004574,0.007948,-0.000006,0.032099,-0.007354,-0.030963,0.009441,0.009589,0.002501,-0.006281,27.304735,3.069550,-23.054229,20.448814,-5.152604,27.752067,-52.844553,163.223479,0.052646,0.883856,0.089078,19.891273,0.456171,-0.000645,7.104220,-0.001033,0.140015,0.022413,-0.012138,-0.011622,0.031706,-0.069238,0.078976,-0.008227,-0.008609,0.003930,-0.027359,0.142039,0.022128,0.059531,0.038939,0.196783,0.047773,-0.025888,0.247562,-0.009366,0.224574,0.130672,-0.042614,0.205975,0.010690,-0.091944,-0.001413,,,,,,,,,,,,,,,,,,,,,,,,,,,,,,,,,,,,,,,,,,,,,,,,,,,,,,,,,,,,,,,,,,,,,,,,,,,,,,,,,,,,,,,,,,,,,,,,,,,,,,,,,,,,,,,,,,,,,,
1690401970.896158,,,,,,,,,,,,,,,,,,,,,,,,,,,,,,,,,,,,,,,,,,,,,,,,,,,,,,,,,,,,1678344381.946697,0.000200,0.000000,0.000000,0.000000,0.000000,0.000000,0.000200,0.000000,0.000000,0.000000,0.000000,0.000200,0.000000,0.000000,0.000000,0.000200,0.000000,0.000000,0.000200,0.000000,0.000200,0.000000,0.000000,0.997452,0.000000,0.000000,-8.181361,-0.071335,0.000000,7.102079,0.000000,0.000200,0.000000,0.000000,0.000000,0.000000,0.000000,0.000200,0.000000,0.000000,0.000000,0.000000,0.000200,0.000000,0.000000,0.000000,0.000200,0.000000,0.000000,0.000200,0.000000,0.000200,0.000000,0.000000,0.007769,0.000000,0.101875,0.000000,,,,,,,,,,,,,,,,,,,,,,,,,,,,,,,,,,,,,,,,,,,,,,,,,,,,,,,,,,,
1690401970.925654,,,,,,,,,,,,,,,,,,,,,,,,,,,,,,,,,,,,,,,,,,,,,,,,,,,,,,,,,,,,,,,,,,,,,,,,,,,,,,,,,,,,,,,,,,,,,,,,,,,,,,,,,,,,,,,,,,,,,,,1678315326.992498,0.000200,0.000000,0.000000,0.000000,0.000000,0.000000,0.000200,0.000000,0.000000,0.000000,0.000000,0.000200,0.000000,0.000000,0.000000,0.000000,0.000000,0.000000,0.000000,0.000000,0.000000,0.000000,0.000000,1.000000,0.000000,0.000000,0.000000,0.000000,-0.077471,7.104141,0.271089,0.000000,0.000000,0.000000,0.000000,0.000000,0.000000,0.000000,0.000000,0.000000,0.000000,0.000000,0.000000,0.000000,0.000000,0.000000,0.000000,0.000000,0.000000,0.000000,0.000000,0.000000,0.000000,0.000000,0.000000,0.000000,0.000000,0.000000
1690401970.940935,,,,,,,,,,,,,,,,,,,,,,,,,,,,,,,,,,,,,,,,,,,,,,,,,,,,,,,,,,,,1678344381.991808,0.000200,0.000000,0.000000,0.000000,0.000000,0.000000,0.000200,0.000000,0.000000,0.000000,0.000000,0.000200,0.000000,0.000000,0.000000,0.000200,0.000000,0.000000,0.000200,0.000000,0.000200,0.000000,0.000000,0.997726,0.000000,0.000000,-7.729353,-0.067400,0.000000,7.104884,0.000000,0.000200,0.000000,0.000000,0.000000,0.000000,0.000000,0.000200,0.000000,0.000000,0.000000,0.000000,0.000200,0.000000,0.000000,0.000000,0.000200,0.000000,0.000000,0.000200,0.000000,0.000200,0.000000,0.000000,0.031077,0.000000,0.094105,0.000000,,,,,,,,,,,,,,,,,,,,,,,,,,,,,,,,,,,,,,,,,,,,,,,,,,,,,,,,,,,
1690401970.988012,1690401970.987678,0.005855,-0.000001,-0.000060,-0.005271,0.001060,-0.005455,0.005783,-0.000003,0.021473,-0.003814,-0.021054,0.006880,0.007713,0.000401,-0.005214,27.528745,2.408770,-23.117694,20.575437,-4.582222,27.750539,-52.914942,165.400191,0.043190,0.885926,0.083065,18.008256,0.454280,-0.000490,7.112659,-0.000720,0.139685,0.019569,-0.012776,-0.010982,0.032573,-0.071733,0.074423,-0.006681,-0.007650,0.003893,-0.023603,0.140066,0.025979,0.061220,0.038594,0.197532,0.047709,-0.026219,0.248509,-0.009324,0.225686,0.130589,-0.042640,0.205873,0.009248,-0.092059,-0.000531,,,,,,,,,,,,,,,,,,,,,,,,,,,,,,,,,,,,,,,,,,,,,,,,,,,,,,,,,,,,,,,,,,,,,,,,,,,,,,,,,,,,,,,,,,,,,,,,,,,,,,,,,,,,,,,,,,,,,,
1690401970.988057,,,,,,,,,,,,,,,,,,,,,,,,,,,,,,,,,,,,,,,,,,,,,,,,,,,,,,,,,,,,1678344382.037059,0.000200,0.000000,0.000000,0.000000,0.000000,0.000000,0.000200,0.000000,0.000000,0.000000,0.000000,0.000200,0.000000,0.000000,0.000000,0.000200,0.000000,0.000000,0.000200,0.000000,0.000200,0.000000,0.000000,0.997508,0.000000,0.000000,-8.090959,-0.070548,0.000000,7.110495,0.000000,0.000200,0.000000,0.000000,0.000000,0.000000,0.000000,0.000200,0.000000,0.000000,0.000000,0.000000,0.000200,0.000000,0.000000,0.000000,0.000200,0.000000,0.000000,0.000200,0.000000,0.000200,0.000000,0.000000,-0.000000,0.000000,0.101516,0.000000,,,,,,,,,,,,,,,,,,,,,,,,,,,,,,,,,,,,,,,,,,,,,,,,,,,,,,,,,,,
1690401971.024835,,,,,,,,,,,,,,,,,,,,,,,,,,,,,,,,,,,,,,,,,,,,,,,,,,,,,,,,,,,,,,,,,,,,,,,,,,,,,,,,,,,,,,,,,,,,,,,,,,,,,,,,,,,,,,,,,,,,,,,1678315327.091202,0.000200,0.000000,0.000000,0.000000,0.000000,0.000000,0.000200,0.000000,0.000000,0.000000,0.000000,0.000200,0.000000,0.000000,0.000000,0.000000,0.000000,0.000000,0.000000,0.000000,0.000000,0.000000,0.000000,1.000000,0.000000,0.000000,0.000000,0.000000,-0.077016,7.114266,0.270685,0.000000,0.000000,0.000000,0.000000,0.000000,0.000000,0.000000,0.000000,0.000000,0.000000,0.000000,0.000000,0.000000,0.000000,0.000000,0.000000,0.000000,0.000000,0.000000,0.000000,0.000000,0.000000,0.000000,0.000000,0.000000,0.000000,0.000000
1690401971.031632,,,,,,,,,,,,,,,,,,,,,,,,,,,,,,,,,,,,,,,,,,,,,,,,,,,,,,,,,,,,1678344382.082623,0.000200,0.000000,0.000000,0.000000,0.000000,0.000000,0.000200,0.000000,0.000000,0.000000,0.000000,0.000200,0.000000,0.000000,0.000000,0.000200,0.000000,0.000000,0.000200,0.000000,0.000200,0.000000,0.000000,0.997564,0.000000,0.000000,-8.000558,-0.069761,0.000000,7.116106,0.000000,0.000200,0.000000,0.000000,0.000000,0.000000,0.000000,0.000200,0.000000,0.000000,0.000000,0.000000,0.000200,0.000000,0.000000,0.000000,0.000200,0.000000,0.000000,0.000200,0.000000,0.000200,0.000000,0.000000,0.021358,0.000000,0.100976,0.000000,,,,,,,,,,,,,,,,,,,,,,,,,,,,,,,,,,,,,,,,,,,,,,,,,,,,,,,,,,,
1690401971.076771,,,,,,,,,,,,,,,,,,,,,,,,,,,,,,,,,,,,,,,,,,,,,,,,,,,,,,,,,,,,1678344382.127684,0.000200,0.000000,0.000000,0.000000,0.000000,0.000000,0.000200,0.000000,0.000000,0.000000,0.000000,0.000200,0.000000,0.000000,0.000000,0.000200,0.000000,0.000000,0.000200,0.000000,0.000200,0.000000,0.000000,0.997591,0.000000,0.000000,-7.955357,-0.069368,0.000000,7.118911,0.000000,0.000200,0.000000,0.000000,0.000000,0.000000,0.000000,0.000200,0.000000,0.000000,0.000000,0.000000,0.000200,0.000000,0.000000,0.000000,0.000200,0.000000,0.000000,0.000200,0.000000,0.000200,0.000000,0.000000,0.021359,0.000000,0.094939,0.000000,,,,,,,,,,,,,,,,,,,,,,,,,,,,,,,,,,,,,,,,,,,,,,,,,,,,,,,,,,,
1690401971.122445,1690401971.120999,0.008077,0.000005,-0.000108,-0.005568,0.004920,-0.012911,0.007933,0.000000,0.027828,-0.003195,-0.027728,0.009452,0.018747,0.000140,-0.014024,27.998916,1.499616,-23.331247,20.711403,-3.779957,27.854773,-53.068102,169.086722,0.027264,0.888696,0.072241,14.756217,0.451948,-0.000675,7.127895,-0.000987,0.144674,0.016917,-0.013900,-0.010206,0.033539,-0.074540,0.075300,-0.005179,-0.006937,0.003918,-0.020250,0.144384,0.030136,0.062960,0.038053,0.198737,0.047690,-0.026452,0.249820,-0.009300,0.227766,0.130863,-0.042708,0.206677,0.006775,-0.096599,0.000930,,,,,,,,,,,,,,,,,,,,,,,,,,,,,,,,,,,,,,,,,,,,,,,,,,,,,,,,,,,,,,,,,,,,,,,,,,,,,,,,,,,,,,,,,,,,,,,,,,,,,,,,,,,,,,,,,,,,,,
1690401971.132467,,,,,,,,,,,,,,,,,,,,,,,,,,,,,,,,,,,,,,,,,,,,,,,,,,,,,,,,,,,,1678344382.172587,0.000200,0.000000,0.000000,0.000000,0.000000,0.000000,0.000200,0.000000,0.000000,0.000000,0.000000,0.000200,0.000000,0.000000,0.000000,0.000200,0.000000,0.000000,0.000200,0.000000,0.000200,0.000000,0.000000,0.997646,0.000000,0.000000,-7.864955,-0.068581,0.000000,7.124171,0.000000,0.000200,0.000000,0.000000,0.000000,0.000000,0.000000,0.000200,0.000000,0.000000,0.000000,0.000000,0.000200,0.000000,0.000000,0.000000,0.000200,0.000000,0.000000,0.000200,0.000000,0.000200,0.000000,0.000000,0.009703,0.000000,0.100925,0.000000,,,,,,,,,,,,,,,,,,,,,,,,,,,,,,,,,,,,,,,,,,,,,,,,,,,,,,,,,,,
1690401971.164577,,,,,,,,,,,,,,,,,,,,,,,,,,,,,,,,,,,,,,,,,,,,,,,,,,,,,,,,,,,,1678344382.216675,0.000200,0.000000,0.000000,0.000000,0.000000,0.000000,0.000200,0.000000,0.000000,0.000000,0.000000,0.000200,0.000000,0.000000,0.000000,0.000200,0.000000,0.000000,0.000200,0.000000,0.000200,0.000000,0.000000,0.997857,0.000000,0.000000,-7.503348,-0.065432,0.000000,7.127327,0.000000,0.000200,0.000000,0.000000,0.000000,0.000000,0.000000,0.000200,0.000000,0.000000,0.000000,0.000000,0.000200,0.000000,0.000000,0.000000,0.000200,0.000000,0.000000,0.000200,0.000000,0.000200,0.000000,0.000000,0.038930,0.000000,0.096040,0.000000,,,,,,,,,,,,,,,,,,,,,,,,,,,,,,,,,,,,,,,,,,,,,,,,,,,,,,,,,,,
1690401971.171852,,,,,,,,,,,,,,,,,,,,,,,,,,,,,,,,,,,,,,,,,,,,,,,,,,,,,,,,,,,,,,,,,,,,,,,,,,,,,,,,,,,,,,,,,,,,,,,,,,,,,,,,,,,,,,,,,,,,,,,1678315327.239051,0.000200,0.000000,0.000000,0.000000,0.000000,0.000000,0.000200,0.000000,0.000000,0.000000,0.000000,0.000200,0.000000,0.000000,0.000000,0.000000,0.000000,0.000000,0.000000,0.000000,0.000000,0.000000,0.000000,1.000000,0.000000,0.000000,0.000000,0.000000,-0.076611,7.124244,0.270244,0.000000,0.000000,0.000000,0.000000,0.000000,0.000000,0.000000,0.000000,0.000000,0.000000,0.000000,0.000000,0.000000,0.000000,0.000000,0.000000,0.000000,0.000000,0.000000,0.000000,0.000000,0.000000,0.000000,0.000000,0.000000,0.000000,0.000000
1690401971.213626,,,,,,,,,,,,,,,,,,,,,,,,,,,,,,,,,,,,,,,,,,,,,,,,,,,,,,,,,,,,1678344382.262533,0.000200,0.000000,0.000000,0.000000,0.000000,0.000000,0.000200,0.000000,0.000000,0.000000,0.000000,0.000200,0.000000,0.000000,0.000000,0.000200,0.000000,0.000000,0.000200,0.000000,0.000200,0.000000,0.000000,0.997646,0.000000,0.000000,-7.864955,-0.068581,0.000000,7.132938,0.000000,0.000200,0.000000,0.000000,0.000000,0.000000,0.000000,0.000200,0.000000,0.000000,0.000000,0.000000,0.000200,0.000000,0.000000,0.000000,0.000200,0.000000,0.000000,0.000200,0.000000,0.000200,0.000000,0.000000,0.005816,0.000000,0.102538,0.000000,,,,,,,,,,,,,,,,,,,,,,,,,,,,,,,,,,,,,,,,,,,,,,,,,,,,,,,,,,,
1690401971.254494,1690401971.254330,0.008083,0.000010,-0.000108,-0.004319,0.008884,-0.015103,0.007927,-0.000001,0.024835,-0.001124,-0.025250,0.009458,0.021608,-0.000575,-0.016613,28.476477,0.604420,-23.539003,20.784727,-2.975285,27.922071,-53.023899,172.367804,0.013161,0.891140,0.062815,11.875474,0.449166,-0.000683,7.141130,-0.000930,0.148413,0.013908,-0.014890,-0.009690,0.034690,-0.077907,0.073927,-0.003448,-0.005981,0.003931,-0.016413,0.147149,0.034536,0.065101,0.037993,0.199885,0.047654,-0.026815,0.251086,-0.009282,0.229589,0.130931,-0.042764,0.206915,0.004547,-0.098473,0.002253,,,,,,,,,,,,,,,,,,,,,,,,,,,,,,,,,,,,,,,,,,,,,,,,,,,,,,,,,,,,,,,,,,,,,,,,,,,,,,,,,,,,,,,,,,,,,,,,,,,,,,,,,,,,,,,,,,,,,,
1690401971.258837,,,,,,,,,,,,,,,,,,,,,,,,,,,,,,,,,,,,,,,,,,,,,,,,,,,,,,,,,,,,1678344382.308726,0.000200,0.000000,0.000000,0.000000,0.000000,0.000000,0.000200,0.000000,0.000000,0.000000,0.000000,0.000200,0.000000,0.000000,0.000000,0.000200,0.000000,0.000000,0.000200,0.000000,0.000200,0.000000,0.000000,0.997673,0.000000,0.000000,-7.819755,-0.068187,0.000000,7.138548,0.000000,0.000200,0.000000,0.000000,0.000000,0.000000,0.000000,0.000200,0.000000,0.000000,0.000000,0.000000,0.000200,0.000000,0.000000,0.000000,0.000200,0.000000,0.000000,0.000200,0.000000,0.000200,0.000000,0.000000,0.019388,0.000000,0.103415,0.000000,,,,,,,,,,,,,,,,,,,,,,,,,,,,,,,,,,,,,,,,,,,,,,,,,,,,,,,,,,,
1690401971.272492,,,,,,,,,,,,,,,,,,,,,,,,,,,,,,,,,,,,,,,,,,,,,,,,,,,,,,,,,,,,,,,,,,,,,,,,,,,,,,,,,,,,,,,,,,,,,,,,,,,,,,,,,,,,,,,,,,,,,,,1678315327.339457,0.000200,0.000000,0.000000,0.000000,0.000000,0.000000,0.000200,0.000000,0.000000,0.000000,0.000000,0.000200,0.000000,0.000000,0.000000,0.000000,0.000000,0.000000,0.000000,0.000000,0.000000,0.000000,0.000000,1.000000,0.000000,0.000000,0.000000,0.000000,-0.076257,7.144502,0.269128,0.000000,0.000000,0.000000,0.000000,0.000000,0.000000,0.000000,0.000000,0.000000,0.000000,0.000000,0.000000,0.000000,0.000000,0.000000,0.000000,0.000000,0.000000,0.000000,0.000000,0.000000,0.000000,0.000000,0.000000,0.000000,0.000000,0.000000
1690401971.302356,,,,,,,,,,,,,,,,,,,,,,,,,,,,,,,,,,,,,,,,,,,,,,,,,,,,,,,,,,,,1678344382.353083,0.000200,0.000000,0.000000,0.000000,0.000000,0.000000,0.000200,0.000000,0.000000,0.000000,0.000000,0.000200,0.000000,0.000000,0.000000,0.000200,0.000000,0.000000,0.000200,0.000000,0.000200,0.000000,0.000000,0.997673,0.000000,0.000000,-7.819755,-0.068187,0.000000,7.141354,0.000000,0.000200,0.000000,0.000000,0.000000,0.000000,0.000000,0.000200,0.000000,0.000000,0.000000,0.000000,0.000200,0.000000,0.000000,0.000000,0.000200,0.000000,0.000000,0.000200,0.000000,0.000200,0.000000,0.000000,0.015530,0.000000,0.096644,0.000000,,,,,,,,,,,,,,,,,,,,,,,,,,,,,,,,,,,,,,,,,,,,,,,,,,,,,,,,,,,
1690401971.349071,,,,,,,,,,,,,,,,,,,,,,,,,,,,,,,,,,,,,,,,,,,,,,,,,,,,,,,,,,,,1678344382.399289,0.000200,0.000000,0.000000,0.000000,0.000000,0.000000,0.000200,0.000000,0.000000,0.000000,0.000000,0.000200,0.000000,0.000000,0.000000,0.000200,0.000000,0.000000,0.000200,0.000000,0.000200,0.000000,0.000000,0.997699,0.000000,0.000000,-7.774553,-0.067794,0.000000,7.146965,0.000000,0.000200,0.000000,0.000000,0.000000,0.000000,0.000000,0.000200,0.000000,0.000000,0.000000,0.000000,0.000200,0.000000,0.000000,0.000000,0.000200,0.000000,0.000000,0.000200,0.000000,0.000200,0.000000,0.000000,-0.001936,0.000000,0.103269,0.000000,,,,,,,,,,,,,,,,,,,,,,,,,,,,,,,,,,,,,,,,,,,,,,,,,,,,,,,,,,,
1690401971.372205,,,,,,,,,,,,,,,,,,,,,,,,,,,,,,,,,,,,,,,,,,,,,,,,,,,,,,,,,,,,,,,,,,,,,,,,,,,,,,,,,,,,,,,,,,,,,,,,,,,,,,,,,,,,,,,,,,,,,,,1678315327.437892,0.000200,0.000000,0.000000,0.000000,0.000000,0.000000,0.000200,0.000000,0.000000,0.000000,0.000000,0.000200,0.000000,0.000000,0.000000,0.000000,0.000000,0.000000,0.000000,0.000000,0.000000,0.000000,0.000000,1.000000,0.000000,0.000000,0.000000,0.000000,-0.077203,7.155814,0.268381,0.000000,0.000000,0.000000,0.000000,0.000000,0.000000,0.000000,0.000000,0.000000,0.000000,0.000000,0.000000,0.000000,0.000000,0.000000,0.000000,0.000000,0.000000,0.000000,0.000000,0.000000,0.000000,0.000000,0.000000,0.000000,0.000000,0.000000
1690401971.391717,1690401971.391455,0.008363,0.000017,-0.000115,-0.003853,0.013150,-0.018186,0.008183,-0.000002,0.022819,0.000716,-0.023680,0.009779,0.027514,-0.000692,-0.021750,29.019043,-0.281971,-23.782335,20.793422,-2.163490,28.002019,-52.867198,175.905870,-0.002016,0.893488,0.052353,8.742675,0.446020,-0.000704,7.156041,-0.000884,0.152944,0.010862,-0.015936,-0.009295,0.035876,-0.081462,0.073231,-0.001658,-0.005009,0.003956,-0.012667,0.150858,0.038842,0.067237,0.038147,0.201097,0.047643,-0.027169,0.252401,-0.009271,0.231523,0.131109,-0.042833,0.207362,0.002224,-0.101521,0.003740,,,,,,,,,,,,,,,,,,,,,,,,,,,,,,,,,,,,,,,,,,,,,,,,,,,,,,,,,,,,,,,,,,,,,,,,,,,,,,,,,,,,,,,,,,,,,,,,,,,,,,,,,,,,,,,,,,,,,,
1690401971.394922,,,,,,,,,,,,,,,,,,,,,,,,,,,,,,,,,,,,,,,,,,,,,,,,,,,,,,,,,,,,1678344382.443912,0.000200,0.000000,0.000000,0.000000,0.000000,0.000000,0.000200,0.000000,0.000000,0.000000,0.000000,0.000200,0.000000,0.000000,0.000000,0.000200,0.000000,0.000000,0.000200,0.000000,0.000200,0.000000,0.000000,0.997883,0.000000,0.000000,-7.458147,-0.065039,0.000000,7.150121,0.000000,0.000200,0.000000,0.000000,0.000000,0.000000,0.000000,0.000200,0.000000,0.000000,0.000000,0.000000,0.000200,0.000000,0.000000,0.000000,0.000200,0.000000,0.000000,0.000200,0.000000,0.000200,0.000000,0.000000,0.027147,0.000000,0.097395,0.000000,,,,,,,,,,,,,,,,,,,,,,,,,,,,,,,,,,,,,,,,,,,,,,,,,,,,,,,,,,,
1690401971.439385,,,,,,,,,,,,,,,,,,,,,,,,,,,,,,,,,,,,,,,,,,,,,,,,,,,,,,,,,,,,1678344382.488873,0.000200,0.000000,0.000000,0.000000,0.000000,0.000000,0.000200,0.000000,0.000000,0.000000,0.000000,0.000200,0.000000,0.000000,0.000000,0.000200,0.000000,0.000000,0.000200,0.000000,0.000200,0.000000,0.000000,0.997673,0.000000,0.000000,-7.819755,-0.068187,0.000000,7.155731,0.000000,0.000200,0.000000,0.000000,0.000000,0.000000,0.000000,0.000200,0.000000,0.000000,0.000000,0.000000,0.000200,0.000000,0.000000,0.000000,0.000200,0.000000,0.000000,0.000200,0.000000,0.000200,0.000000,0.000000,0.007768,0.000000,0.097540,0.000000,,,,,,,,,,,,,,,,,,,,,,,,,,,,,,,,,,,,,,,,,,,,,,,,,,,,,,,,,,,
1690401971.469336,,,,,,,,,,,,,,,,,,,,,,,,,,,,,,,,,,,,,,,,,,,,,,,,,,,,,,,,,,,,,,,,,,,,,,,,,,,,,,,,,,,,,,,,,,,,,,,,,,,,,,,,,,,,,,,,,,,,,,,1678315327.537119,0.000200,0.000000,0.000000,0.000000,0.000000,0.000000,0.000200,0.000000,0.000000,0.000000,0.000000,0.000200,0.000000,0.000000,0.000000,0.000000,0.000000,0.000000,0.000000,0.000000,0.000000,0.000000,0.000000,1.000000,0.000000,0.000000,0.000000,0.000000,-0.076138,7.165126,0.267340,0.000000,0.000000,0.000000,0.000000,0.000000,0.000000,0.000000,0.000000,0.000000,0.000000,0.000000,0.000000,0.000000,0.000000,0.000000,0.000000,0.000000,0.000000,0.000000,0.000000,0.000000,0.000000,0.000000,0.000000,0.000000,0.000000,0.000000
1690401971.483547,,,,,,,,,,,,,,,,,,,,,,,,,,,,,,,,,,,,,,,,,,,,,,,,,,,,,,,,,,,,1678344382.533705,0.000200,0.000000,0.000000,0.000000,0.000000,0.000000,0.000200,0.000000,0.000000,0.000000,0.000000,0.000200,0.000000,0.000000,0.000000,0.000200,0.000000,0.000000,0.000200,0.000000,0.000200,0.000000,0.000000,0.997699,0.000000,0.000000,-7.774553,-0.067794,0.000000,7.161342,0.000000,0.000200,0.000000,0.000000,0.000000,0.000000,0.000000,0.000200,0.000000,0.000000,0.000000,0.000000,0.000200,0.000000,0.000000,0.000000,0.000200,0.000000,0.000000,0.000200,0.000000,0.000200,0.000000,0.000000,0.007772,0.000000,0.104504,0.000000,,,,,,,,,,,,,,,,,,,,,,,,,,,,,,,,,,,,,,,,,,,,,,,,,,,,,,,,,,,
1690401971.521131,1690401971.520991,0.007827,0.000018,-0.000101,-0.003696,0.015285,-0.016890,0.007662,-0.000005,0.018432,0.002120,-0.019564,0.009164,0.026747,-0.000960,-0.021456,29.524371,-1.060793,-23.997403,20.733377,-1.431294,28.045967,-52.598828,179.008310,-0.015494,0.895424,0.043198,6.014025,0.442842,-0.000658,7.168915,-0.000736,0.157210,0.007860,-0.016952,-0.009132,0.037084,-0.085125,0.072009,0.000162,-0.003989,0.003992,-0.009069,0.154192,0.042856,0.069371,0.038660,0.202221,0.047648,-0.027555,0.253631,-0.009267,0.233236,0.131154,-0.042888,0.207486,0.000107,-0.102817,0.005076,,,,,,,,,,,,,,,,,,,,,,,,,,,,,,,,,,,,,,,,,,,,,,,,,,,,,,,,,,,,,,,,,,,,,,,,,,,,,,,,,,,,,,,,,,,,,,,,,,,,,,,,,,,,,,,,,,,,,,
1690401971.528489,,,,,,,,,,,,,,,,,,,,,,,,,,,,,,,,,,,,,,,,,,,,,,,,,,,,,,,,,,,,1678344382.578807,0.000200,0.000000,0.000000,0.000000,0.000000,0.000000,0.000200,0.000000,0.000000,0.000000,0.000000,0.000200,0.000000,0.000000,0.000000,0.000200,0.000000,0.000000,0.000200,0.000000,0.000200,0.000000,0.000000,0.997959,0.000000,0.000000,-7.322544,-0.063858,0.000000,7.163797,0.000000,0.000200,0.000000,0.000000,0.000000,0.000000,0.000000,0.000200,0.000000,0.000000,0.000000,0.000000,0.000200,0.000000,0.000000,0.000000,0.000200,0.000000,0.000000,0.000200,0.000000,0.000200,0.000000,0.000000,0.023305,0.000000,0.097547,0.000000,,,,,,,,,,,,,,,,,,,,,,,,,,,,,,,,,,,,,,,,,,,,,,,,,,,,,,,,,,,
1690401971.580047,,,,,,,,,,,,,,,,,,,,,,,,,,,,,,,,,,,,,,,,,,,,,,,,,,,,,,,,,,,,1678344382.623271,0.000200,0.000000,0.000000,0.000000,0.000000,0.000000,0.000200,0.000000,0.000000,0.000000,0.000000,0.000200,0.000000,0.000000,0.000000,0.000200,0.000000,0.000000,0.000200,0.000000,0.000200,0.000000,0.000000,0.997779,0.000000,0.000000,-7.638951,-0.066613,0.000000,7.169407,0.000000,0.000200,0.000000,0.000000,0.000000,0.000000,0.000000,0.000200,0.000000,0.000000,0.000000,0.000000,0.000200,0.000000,0.000000,0.000000,0.000200,0.000000,0.000000,0.000200,0.000000,0.000200,0.000000,0.000000,-0.005821,0.000000,0.103494,0.000000,,,,,,,,,,,,,,,,,,,,,,,,,,,,,,,,,,,,,,,,,,,,,,,,,,,,,,,,,,,
1690401971.623478,1690401971.621156,0.005873,0.000012,-0.000060,-0.003235,0.013095,-0.010510,0.005778,-0.000007,0.011806,0.002379,-0.012820,0.006900,0.016864,-0.001440,-0.013620,29.888013,-1.607278,-24.136560,20.633011,-0.900296,28.046966,-52.343908,-178.889880,0.024862,-0.896672,-0.037179,4.203078,-0.440430,-0.000501,7.176717,-0.000475,0.159383,0.005311,-0.017719,-0.009189,0.038068,-0.088254,0.069447,0.001741,-0.003029,0.004023,-0.006087,0.155148,0.045851,0.071009,0.039451,0.203069,0.047669,-0.027889,0.254592,-0.009259,0.234444,0.130994,-0.042915,0.207211,-0.001304,-0.101408,0.005937,,,,,,,,,,,,,,,,,,,,,,,,,,,,,,,,,,,,,,,,,,,,,,,,,,,,,,,,,,,,,,,,,,,,,,,,,,,,,,,,,,,,,,,,,,,,,,,,,,,,,,,,,,,,,,,,,,,,,,
1690401971.623518,,,,,,,,,,,,,,,,,,,,,,,,,,,,,,,,,,,,,,,,,,,,,,,,,,,,,,,,,,,,1678344382.668303,0.000200,0.000000,0.000000,0.000000,0.000000,0.000000,0.000200,0.000000,0.000000,0.000000,0.000000,0.000200,0.000000,0.000000,0.000000,0.000200,0.000000,0.000000,0.000200,0.000000,0.000200,0.000000,0.000000,0.998009,0.000000,0.000000,-7.232142,-0.063070,0.000000,7.172213,0.000000,0.000200,0.000000,0.000000,0.000000,0.000000,0.000000,0.000200,0.000000,0.000000,0.000000,0.000000,0.000200,0.000000,0.000000,0.000000,0.000200,0.000000,0.000000,0.000200,0.000000,0.000200,0.000000,0.000000,0.027219,0.000000,0.096791,0.000000,,,,,,,,,,,,,,,,,,,,,,,,,,,,,,,,,,,,,,,,,,,,,,,,,,,,,,,,,,,
1690401971.623567,,,,,,,,,,,,,,,,,,,,,,,,,,,,,,,,,,,,,,,,,,,,,,,,,,,,,,,,,,,,,,,,,,,,,,,,,,,,,,,,,,,,,,,,,,,,,,,,,,,,,,,,,,,,,,,,,,,,,,,1678315327.684764,0.000200,0.000000,0.000000,0.000000,0.000000,0.000000,0.000200,0.000000,0.000000,0.000000,0.000000,0.000200,0.000000,0.000000,0.000000,0.000000,0.000000,0.000000,0.000000,0.000000,0.000000,0.000000,0.000000,1.000000,0.000000,0.000000,0.000000,0.000000,-0.075746,7.175210,0.266340,0.000000,0.000000,0.000000,0.000000,0.000000,0.000000,0.000000,0.000000,0.000000,0.000000,0.000000,0.000000,0.000000,0.000000,0.000000,0.000000,0.000000,0.000000,0.000000,0.000000,0.000000,0.000000,0.000000,0.000000,0.000000,0.000000,0.000000
1690401971.663918,,,,,,,,,,,,,,,,,,,,,,,,,,,,,,,,,,,,,,,,,,,,,,,,,,,,,,,,,,,,1678344382.713300,0.000200,0.000000,0.000000,0.000000,0.000000,0.000000,0.000200,0.000000,0.000000,0.000000,0.000000,0.000200,0.000000,0.000000,0.000000,0.000200,0.000000,0.000000,0.000200,0.000000,0.000200,0.000000,0.000000,0.997805,0.000000,0.000000,-7.593750,-0.066219,0.000000,7.177823,0.000000,0.000200,0.000000,0.000000,0.000000,0.000000,0.000000,0.000200,0.000000,0.000000,0.000000,0.000000,0.000200,0.000000,0.000000,0.000000,0.000200,0.000000,0.000000,0.000200,0.000000,0.000200,0.000000,0.000000,0.009750,0.000000,0.097077,0.000000,,,,,,,,,,,,,,,,,,,,,,,,,,,,,,,,,,,,,,,,,,,,,,,,,,,,,,,,,,,
1690401971.708378,,,,,,,,,,,,,,,,,,,,,,,,,,,,,,,,,,,,,,,,,,,,,,,,,,,,,,,,,,,,1678344382.758701,0.000200,0.000000,0.000000,0.000000,0.000000,0.000000,0.000200,0.000000,0.000000,0.000000,0.000000,0.000200,0.000000,0.000000,0.000000,0.000200,0.000000,0.000000,0.000200,0.000000,0.000200,0.000000,0.000000,0.997857,0.000000,0.000000,-7.503348,-0.065432,0.000000,7.183083,0.000000,0.000200,0.000000,0.000000,0.000000,0.000000,0.000000,0.000200,0.000000,0.000000,0.000000,0.000000,0.000200,0.000000,0.000000,0.000000,0.000200,0.000000,0.000000,0.000200,0.000000,0.000200,0.000000,0.000000,0.013615,0.000000,0.102879,0.000000,,,,,,,,,,,,,,,,,,,,,,,,,,,,,,,,,,,,,,,,,,,,,,,,,,,,,,,,,,,
1690401971.716027,,,,,,,,,,,,,,,,,,,,,,,,,,,,,,,,,,,,,,,,,,,,,,,,,,,,,,,,,,,,,,,,,,,,,,,,,,,,,,,,,,,,,,,,,,,,,,,,,,,,,,,,,,,,,,,,,,,,,,,1678315327.783378,0.000200,0.000000,0.000000,0.000000,0.000000,0.000000,0.000200,0.000000,0.000000,0.000000,0.000000,0.000200,0.000000,0.000000,0.000000,0.000000,0.000000,0.000000,0.000000,0.000000,0.000000,0.000000,0.000000,1.000000,0.000000,0.000000,0.000000,0.000000,-0.076007,7.186064,0.265278,0.000000,0.000000,0.000000,0.000000,0.000000,0.000000,0.000000,0.000000,0.000000,0.000000,0.000000,0.000000,0.000000,0.000000,0.000000,0.000000,0.000000,0.000000,0.000000,0.000000,0.000000,0.000000,0.000000,0.000000,0.000000,0.000000,0.000000
1690401971.753411,,,,,,,,,,,,,,,,,,,,,,,,,,,,,,,,,,,,,,,,,,,,,,,,,,,,,,,,,,,,1678344382.803544,0.000200,0.000000,0.000000,0.000000,0.000000,0.000000,0.000200,0.000000,0.000000,0.000000,0.000000,0.000200,0.000000,0.000000,0.000000,0.000200,0.000000,0.000000,0.000200,0.000000,0.000200,0.000000,0.000000,0.998107,0.000000,0.000000,-7.051339,-0.061496,0.000000,7.185889,0.000000,0.000200,0.000000,0.000000,0.000000,0.000000,0.000000,0.000200,0.000000,0.000000,0.000000,0.000000,0.000200,0.000000,0.000000,0.000000,0.000200,0.000000,0.000000,0.000200,0.000000,0.000200,0.000000,0.000000,0.031224,0.000000,0.096286,0.000000,,,,,,,,,,,,,,,,,,,,,,,,,,,,,,,,,,,,,,,,,,,,,,,,,,,,,,,,,,,
1690401971.788436,1690401971.787657,0.010519,0.000042,-0.000167,-0.006355,0.023255,-0.022153,0.010229,-0.000015,0.018987,0.005399,-0.020897,0.012262,0.041109,-0.000814,-0.033551,30.657353,-2.414351,-24.497975,20.460160,-0.143952,28.212470,-51.753413,-174.690554,0.043570,-0.898673,-0.024125,0.498672,-0.435782,-0.000842,7.197381,-0.000831,0.169463,0.001932,-0.019271,-0.008761,0.039323,-0.092182,0.074423,0.003844,-0.002148,0.004109,-0.002533,0.165521,0.050316,0.073054,0.039629,0.204632,0.047687,-0.028077,0.256250,-0.009239,0.237265,0.131358,-0.042955,0.207812,-0.004772,-0.107150,0.008179,,,,,,,,,,,,,,,,,,,,,,,,,,,,,,,,,,,,,,,,,,,,,,,,,,,,,,,,,,,,,,,,,,,,,,,,,,,,,,,,,,,,,,,,,,,,,,,,,,,,,,,,,,,,,,,,,,,,,,
1690401971.796590,,,,,,,,,,,,,,,,,,,,,,,,,,,,,,,,,,,,,,,,,,,,,,,,,,,,,,,,,,,,1678344382.847661,0.000200,0.000000,0.000000,0.000000,0.000000,0.000000,0.000200,0.000000,0.000000,0.000000,0.000000,0.000200,0.000000,0.000000,0.000000,0.000200,0.000000,0.000000,0.000200,0.000000,0.000200,0.000000,0.000000,0.997908,0.000000,0.000000,-7.412946,-0.064645,0.000000,7.191499,0.000000,0.000200,0.000000,0.000000,0.000000,0.000000,0.000000,0.000200,0.000000,0.000000,0.000000,0.000000,0.000200,0.000000,0.000000,0.000000,0.000200,0.000000,0.000000,0.000200,0.000000,0.000200,0.000000,0.000000,0.001954,0.000000,0.102487,0.000000,,,,,,,,,,,,,,,,,,,,,,,,,,,,,,,,,,,,,,,,,,,,,,,,,,,,,,,,,,,
1690401971.810319,,,,,,,,,,,,,,,,,,,,,,,,,,,,,,,,,,,,,,,,,,,,,,,,,,,,,,,,,,,,,,,,,,,,,,,,,,,,,,,,,,,,,,,,,,,,,,,,,,,,,,,,,,,,,,,,,,,,,,,1678315327.876810,0.000200,0.000000,0.000000,0.000000,0.000000,0.000000,0.000200,0.000000,0.000000,0.000000,0.000000,0.000200,0.000000,0.000000,0.000000,0.000000,0.000000,0.000000,0.000000,0.000000,0.000000,0.000000,0.000000,1.000000,0.000000,0.000000,0.000000,0.000000,-0.075016,7.195533,0.264019,0.000000,0.000000,0.000000,0.000000,0.000000,0.000000,0.000000,0.000000,0.000000,0.000000,0.000000,0.000000,0.000000,0.000000,0.000000,0.000000,0.000000,0.000000,0.000000,0.000000,0.000000,0.000000,0.000000,0.000000,0.000000,0.000000,0.000000
1690401971.844926,,,,,,,,,,,,,,,,,,,,,,,,,,,,,,,,,,,,,,,,,,,,,,,,,,,,,,,,,,,,1678344382.894269,0.000200,0.000000,0.000000,0.000000,0.000000,0.000000,0.000200,0.000000,0.000000,0.000000,0.000000,0.000200,0.000000,0.000000,0.000000,0.000200,0.000000,0.000000,0.000200,0.000000,0.000200,0.000000,0.000000,0.998132,0.000000,0.000000,-7.006138,-0.061102,0.000000,7.194305,0.000000,0.000200,0.000000,0.000000,0.000000,0.000000,0.000000,0.000200,0.000000,0.000000,0.000000,0.000000,0.000200,0.000000,0.000000,0.000000,0.000200,0.000000,0.000000,0.000200,0.000000,0.000200,0.000000,0.000000,0.035028,0.000000,0.095150,0.000000,,,,,,,,,,,,,,,,,,,,,,,,,,,,,,,,,,,,,,,,,,,,,,,,,,,,,,,,,,,
1690401971.887826,1690401971.887658,0.005861,0.000015,-0.000061,-0.004733,0.015163,-0.007947,0.005767,-0.000012,0.008317,0.003706,-0.009510,0.006889,0.015877,-0.001770,-0.013142,30.912898,-2.812016,-24.540558,20.278478,0.276800,28.112729,-51.433204,-172.806519,0.052381,-0.899396,-0.018632,-1.094500,-0.433586,-0.000484,7.203253,-0.000324,0.170591,-0.001080,-0.020099,-0.009076,0.040464,-0.095938,0.069564,0.005816,-0.000856,0.004169,0.000801,0.164637,0.053227,0.074796,0.041105,0.205423,0.047727,-0.028514,0.257199,-0.009217,0.238146,0.131008,-0.042996,0.207306,-0.005727,-0.103408,0.008779,,,,,,,,,,,,,,,,,,,,,,,,,,,,,,,,,,,,,,,,,,,,,,,,,,,,,,,,,,,,,,,,,,,,,,,,,,,,,,,,,,,,,,,,,,,,,,,,,,,,,,,,,,,,,,,,,,,,,,
1690401971.887871,,,,,,,,,,,,,,,,,,,,,,,,,,,,,,,,,,,,,,,,,,,,,,,,,,,,,,,,,,,,1678344382.938938,0.000200,0.000000,0.000000,0.000000,0.000000,0.000000,0.000200,0.000000,0.000000,0.000000,0.000000,0.000200,0.000000,0.000000,0.000000,0.000200,0.000000,0.000000,0.000200,0.000000,0.000200,0.000000,0.000000,0.997959,0.000000,0.000000,-7.322544,-0.063858,0.000000,7.199915,0.000000,0.000200,0.000000,0.000000,0.000000,0.000000,0.000000,0.000200,0.000000,0.000000,0.000000,0.000000,0.000200,0.000000,0.000000,0.000000,0.000200,0.000000,0.000000,0.000200,0.000000,0.000200,0.000000,0.000000,0.019468,0.000000,0.095188,0.000000,,,,,,,,,,,,,,,,,,,,,,,,,,,,,,,,,,,,,,,,,,,,,,,,,,,,,,,,,,,
1690401971.912760,,,,,,,,,,,,,,,,,,,,,,,,,,,,,,,,,,,,,,,,,,,,,,,,,,,,,,,,,,,,,,,,,,,,,,,,,,,,,,,,,,,,,,,,,,,,,,,,,,,,,,,,,,,,,,,,,,,,,,,1678315327.975546,0.000200,0.000000,0.000000,0.000000,0.000000,0.000000,0.000200,0.000000,0.000000,0.000000,0.000000,0.000200,0.000000,0.000000,0.000000,0.000000,0.000000,0.000000,0.000000,0.000000,0.000000,0.000000,0.000000,1.000000,0.000000,0.000000,0.000000,0.000000,-0.075583,7.206611,0.263087,0.000000,0.000000,0.000000,0.000000,0.000000,0.000000,0.000000,0.000000,0.000000,0.000000,0.000000,0.000000,0.000000,0.000000,0.000000,0.000000,0.000000,0.000000,0.000000,0.000000,0.000000,0.000000,0.000000,0.000000,0.000000,0.000000,0.000000
